JobAcceptedDate,jobAcceptedTime,calledMerchantTime,arrivedAtMerchantTime,mealPickedUpTime,arrivedAtCustLocationTime,foodDeliveredTime,riderInitial.lat,riderInitial.long,Merchant.Lat,Merchant.Lng,Customer.lat,Customer.lng,MerchantName,NationFoodCategory,FoodCategories
2020-10-03,20:39:16,20:40:52,20:48:20,20:49:19,21:14:10,21:15:13,13.8258527,100.551958,13.8257034,100.5593094,13.756065,100.562375,3K SEA ZABB,Thai,อาหารทะเล
2020-10-01,12:54:35,12:55:39,13:10:27,13:24:57,14:01:01,14:01:40,13.8192831,100.561874,13.8310562,100.5707308,13.774685,100.573913,ร้านอาหารอีสานแม่อลิส,Thai,อาหารอีสาน
2020-10-01,12:32:07,12:32:22,12:41:09,12:46:42,13:22:02,13:22:54,13.8270407,100.554284,13.8272046,100.536048,13.743898,100.571659,ไก่ย่างห้าดาว กรุงเทพ-นนท์44,Thai,Fast Food
2020-10-03,13:19:03,13:20:04,13:32:37,13:45:46,14:14:28,14:15:47,13.8204533,100.55791,13.8401798,100.5423255,13.803957,100.513704,กิวกิวเต้ ประชาชื่น,Japanese,ปิ้งย่าง
2020-10-13,11:08:27,11:09:04,11:13:44,11:15:33,11:40:27,11:41:24,13.8257732,100.56717,13.8270341,100.5645341,13.775817,100.575734,ร้านอาหาร วินเทส,Thai,อาหารตามสั่ง
2020-10-05,20:40:34,20:41:49,20:54:39,20:59:33,21:30:43,21:31:44,13.8204711,100.554373,13.8246205,100.5633957,13.815795,100.646337,JIWALAK,Thai,อาหารคลีน
2020-10-14,13:42:32,13:44:11,13:55:03,14:09:08,14:20:30,14:21:25,13.8264728,100.558289,13.8303373,100.5471685,13.845513,100.564798,ร้านโกดัง2020,Thai,อาหารตามสั่ง
2020-10-08,11:23:34,11:24:09,11:31:11,11:38:19,12:23:26,12:23:40,13.8252661,100.562639,13.8221346,100.5793754,13.766828,100.6328304,ร้านแซ่บอีหลี Zab E Lee,Thai,อาหารอีสาน
2020-10-11,12:47:40,12:49:27,12:56:23,12:58:37,13:44:25,13:45:09,13.8237647,100.552806,13.8236557,100.5663012,13.7734995,100.6317709,Lab Ped Nong Khai,Thai,อาหารอีสาน
2020-10-13,09:20:01,09:20:35,09:28:54,09:39:49,10:27:09,10:27:37,13.8253914,100.548713,13.8270341,100.5645341,13.748206,100.58859,ร้านพี่น้อง,Thai,อาหารตามสั่ง
2020-10-13,20:32:30,20:34:10,20:40:27,20:43:00,21:22:33,21:23:14,13.82852,100.566005,13.8246205,100.5633957,13.739573,100.555864,ร้านอาหารอมร,Thai,อาหารตามสั่ง
2020-10-12,19:55:55,19:56:49,20:10:48,20:17:50,21:01:11,21:01:32,13.8288176,100.568089,13.8254703,100.5592021,13.74474176,100.5627387,เตี๋ยวร้านต็อบ,Thai,ร้านก๋วยเตี๋ยว
2020-10-02,10:18:29,10:19:22,10:23:55,10:35:31,11:34:58,11:36:01,13.8210035,100.556709,13.8208651,100.5558353,13.86016015,100.653012,อาหารตามสั่ง ซอยวิภาวดีรังสิต 11,Thai,อาหารตามสั่ง
2020-10-06,11:12:20,11:13:46,11:19:57,11:28:12,11:58:26,11:58:52,13.8246132,100.560873,13.8246205,100.5633957,13.828412,100.500427,กระเพาะปลาแม่มาลี,Thai,อาหารตามสั่ง
2020-10-06,17:44:01,17:44:07,17:55:43,18:01:09,18:40:00,18:41:24,13.8198742,100.547626,13.8369959,100.5404075,13.750827,100.598138,Hia Lek,Thai,อาหารตามสั่ง
2020-10-02,15:48:49,15:49:43,15:55:04,15:56:21,16:20:02,16:20:38,13.8234499,100.56951,13.8286272,100.5708436,13.7786081,100.5766103,ร้านอาหารอร่อย@พหล30,Thai,อาหารตามสั่ง
2020-10-05,16:35:20,16:36:51,16:51:34,17:06:28,17:33:31,17:34:29,13.8252343,100.546863,13.8313101,100.559465,13.77583707,100.542976,ร้าน ๑ เดี่ยวส้มตำ @รัชดา48,Thai,อาหารอีสาน
2020-10-10,19:32:44,19:33:28,19:51:52,19:55:36,20:13:42,20:14:05,13.821116,100.559232,13.8392356,100.5513614,13.794282,100.549671,นัวขนาด,Thai,อาหารอีสาน
2020-10-08,11:54:14,11:55:16,12:05:05,12:15:39,12:44:43,12:45:28,13.8276462,100.561028,13.8232357,100.560739,13.812971,100.610308,ร้านตู้ปลา หลังชินวัตร3,Thai,อาหารตามสั่ง
2020-10-14,21:51:24,21:52:39,22:00:45,22:04:52,22:18:38,22:19:27,13.8202286,100.549525,13.8294607,100.5349546,13.862964,100.536036,Queen Steak House,International,สเต๊ก
2020-10-01,09:29:05,09:30:51,09:39:34,09:52:28,10:12:17,10:12:24,13.8261693,100.555053,13.8259715,100.55715,13.800699,100.573447,Ploen,Thai,อาหารตามสั่ง
2020-10-11,19:48:17,19:48:55,19:57:34,20:01:45,20:20:07,20:21:24,13.8193379,100.567328,13.8270341,100.5645341,13.797278,100.552185,ร้านเข้าซอย,Thai,อาหารเหนือ
2020-10-07,09:18:35,09:20:02,09:25:04,09:38:41,10:08:34,10:09:33,13.8282532,100.564004,13.8295898,100.5621261,13.784998,100.569631,Hangout by aruno,Thai,อาหารตามสั่ง
2020-10-03,12:26:38,12:28:30,12:43:30,12:51:41,13:27:19,13:27:30,13.823736,100.568694,13.8212138,100.5802001,13.765223,100.567891,HungryMan House,International,สปาเก็ตตี้
2020-10-03,16:09:59,16:10:53,16:15:13,16:16:14,16:40:28,16:40:57,13.8214429,100.564804,13.8236557,100.5663012,13.815763,100.610654,Lab Ped Nong Khai,Thai,อาหารอีสาน
2020-10-11,21:54:35,21:56:11,22:08:52,22:09:48,22:52:06,22:53:11,13.825217,100.553545,13.8270341,100.5645341,13.739573,100.555864,เหมยอาหารตามสั่ง,Thai,อาหารตามสั่ง
2020-10-01,20:05:51,20:06:47,20:17:25,20:30:21,21:08:06,21:08:17,13.819382,100.559212,13.8270341,100.5645341,13.770947,100.576655,ร้านเข้าซอย,Thai,อาหารเหนือ
2020-10-13,18:05:28,18:06:27,18:19:41,18:23:32,18:33:49,18:34:46,13.8287274,100.558802,13.8398417,100.5539785,13.844872,100.527703,Jitprapassorn Restaurant,Thai,อาหารตามสั่ง
2020-10-07,11:49:21,11:51:06,12:02:24,12:02:57,12:52:43,12:54:10,13.8258323,100.565057,13.8208421,100.5558652,13.833928,100.659263,ครัวบ้านบ้าน,Thai,อาหารตามสั่ง
2020-10-10,14:30:12,14:31:36,14:35:18,14:39:31,15:22:04,15:23:23,13.8204634,100.567048,13.8270341,100.5645341,13.738515,100.564749,ร้านพี่น้อง,Thai,อาหารตามสั่ง
2020-10-02,08:09:36,08:10:01,08:15:48,08:16:57,08:43:41,08:44:33,13.826108,100.569478,13.8246205,100.5633957,13.775817,100.575734,สหชัยบะหมี่เกี๊ยวปูหมูแดง ร้านก๊วยเตี๊ยว,Thai,ร้านก๋วยเตี๋ยว
2020-10-04,14:43:44,14:43:54,14:56:06,14:57:59,15:04:52,15:05:46,13.823784,100.559395,13.8394082,100.5508608,13.845245,100.565148,Michelle Gourmet,International,อาหารตามสั่ง
2020-10-09,20:30:12,20:31:30,20:42:05,20:46:37,21:08:18,21:09:35,13.8230736,100.560481,13.8222855,100.5764408,13.77143,100.594757,ร้านอาหารตามสั่งป้าหวี,Thai,อาหารตามสั่ง
2020-10-03,09:01:18,09:01:33,09:08:38,09:08:43,09:35:58,09:36:16,13.8209383,100.555371,13.8270341,100.5645341,13.778313,100.548449,ร้านขนมจีน,Thai,ขนมจีน
2020-10-12,15:27:56,15:29:05,15:42:40,15:52:00,16:28:34,16:28:49,13.8271359,100.555095,13.8270341,100.5645341,13.768619,100.596208,ร้านเข้าซอย,Thai,อาหารเหนือ
2020-10-10,12:54:52,12:56:01,13:09:38,13:21:37,14:05:51,14:06:29,13.8260739,100.549158,13.8275203,100.5654979,13.744085,100.587193,ร้านขาหมูอร่อยนะบายจอย,Thai,อาหารตามสั่ง
2020-10-08,12:54:26,12:54:53,13:01:16,13:15:10,13:40:52,13:42:04,13.8223791,100.552412,13.8233794,100.5506289,13.778938,100.570875,ร้านครัวตามใจสั่ง,Thai,อาหารตามสั่ง
2020-10-12,11:01:49,11:03:37,11:18:27,11:21:18,11:38:38,11:39:33,13.8273242,100.568059,13.8369959,100.5404075,13.816298,100.562819,Hia Lek,Thai,อาหารตามสั่ง
2020-10-01,14:50:47,14:52:36,15:03:08,15:13:13,15:41:21,15:41:54,13.8239524,100.550809,13.8401798,100.5423255,13.835037,100.580824,กิวกิวเต้ ประชาชื่น,Japanese,ปิ้งย่าง
2020-10-13,09:13:06,09:13:36,09:18:24,09:23:44,09:34:35,09:35:09,13.8225307,100.561669,13.8246205,100.5633957,13.814019,100.564862,ร้านข้าวแกงลุงดำ,Thai,อาหารตามสั่ง
2020-10-03,10:01:29,10:01:52,10:12:59,10:18:10,10:35:32,10:36:24,13.8290627,100.551156,13.8266157,100.5659024,13.785946,100.584923,ร้านข้าวซอย&ขนมจีน,Thai,อาหารเหนือ
2020-10-04,21:46:31,21:47:36,21:54:13,21:56:39,22:24:32,22:25:20,13.8225888,100.566996,13.8270341,100.5645341,13.778395,100.574172,ร้านอาหารสำรับกับข้าว,Thai,อาหารตามสั่ง
2020-10-02,09:19:09,09:20:39,09:23:53,09:28:35,09:33:21,09:33:33,13.8217283,100.56382,13.8270341,100.5645341,13.820002,100.568303,อาหารอิสลามฮัยดัร,Isram,อาหารฮาลาล
2020-10-09,10:15:10,10:16:11,10:19:26,10:28:11,10:49:33,10:50:52,13.8274565,100.547754,13.8334697,100.5452996,13.79759879,100.5560175,TEVA FOOD,Thai,อาหารตามสั่ง
2020-10-10,14:09:27,14:11:17,14:24:38,14:25:09,15:00:09,15:00:45,13.824316,100.560282,13.8299181,100.5339571,13.745572,100.551314,ถนัดกินกลางซอย,Thai,อาหารตามสั่ง
2020-10-10,11:34:13,11:35:46,11:52:47,12:07:39,12:51:18,12:51:33,13.8283997,100.563803,13.8435708,100.5448913,13.752776,100.533843,Smith & Rabbit Cuisine,International,อาหารตามสั่ง
2020-10-09,17:41:51,17:42:46,17:52:22,17:59:18,18:31:46,18:32:01,13.8222101,100.56417,13.8270341,100.5645341,13.8605896,100.5120078,บ้านขนมหวาน จะนะ,Thai,ของหวาน
2020-10-11,19:36:37,19:37:34,19:45:29,19:51:18,20:25:26,20:26:42,13.8281169,100.567588,13.8231392,100.5601657,13.888971,100.598906,ซินจ่าว ก๋วยจั๊บญวน,Thai,ร้านก๋วยเตี๋ยว
2020-10-12,21:26:21,21:27:59,21:41:34,21:53:52,22:40:50,22:41:48,13.824646,100.54801,13.8309975,100.535989,13.747821,100.555133,Buzza,International,อาหารตามสั่ง
2020-10-04,19:25:49,19:27:03,19:31:00,19:39:16,19:47:42,19:48:55,13.82438,100.559157,13.826941,100.5655884,13.816298,100.562819,ร้านข้าวแกง ครัววท.บ. (แม่ละเมียด),Thai,อาหารตามสั่ง
2020-10-09,11:54:06,11:55:53,12:08:54,12:10:30,12:41:37,12:43:02,13.8230884,100.546264,13.8299181,100.5339571,13.794186,100.588656,ถนัดกินกลางซอย,Thai,อาหารตามสั่ง
2020-10-09,15:39:53,15:40:59,15:48:44,15:57:13,16:03:29,16:03:45,13.823507,100.565198,13.8270341,100.5645341,13.8277728,100.5685145,ร้านโตโต้ ตำแหลก,Thai,อาหารอีสาน
2020-10-01,18:01:52,18:02:52,18:08:39,18:10:39,18:29:30,18:30:52,13.8260395,100.567431,13.8270341,100.5645341,13.788099,100.55787,ร้านเกี๋ยวเตี๋ยวแม่แหวน,Thai,ร้านก๋วยเตี๋ยว
2020-10-03,19:50:53,19:51:40,20:00:37,20:03:52,20:50:29,20:51:00,13.8282091,100.561573,13.8295721,100.5621929,13.73945,100.564353,ร้านอาหาร The White House@รัชโยธิน,Thai,อาหารตามสั่ง
2020-10-12,12:33:07,12:35:00,12:57:15,13:04:23,13:34:02,13:35:19,13.822353,100.564296,13.8272999,100.5283614,13.788352,100.552807,MK Restaurants,Thai,สุกี้ยากี้
2020-10-05,19:41:05,19:41:40,19:49:19,20:03:10,20:20:26,20:21:01,13.8210107,100.557431,13.823734,100.553947,13.81142121,100.5766005,ร้านปาร์ซีฟู้ดแซ่บBy.dara,Thai,อาหารทะเล
2020-10-11,18:47:57,18:48:11,18:53:27,19:07:03,19:22:21,19:22:30,13.823848,100.563797,13.8270341,100.5645341,13.806375,100.528936,หม่าล่า,Thai,อาหารจานด่วน
2020-10-05,17:41:00,17:41:15,17:47:16,17:47:59,18:33:31,18:33:37,13.8211492,100.564854,13.8266157,100.5659024,13.740071,100.580933,ร้านข้าวซอย&ขนมจีน,Thai,อาหารเหนือ
2020-10-10,09:35:34,09:36:15,09:54:11,09:59:00,10:32:47,10:33:10,13.8226103,100.561417,13.8273022,100.5358786,13.781352,100.543174,ร้านลูกชิ้นทอด,Thai,อาหารจานด่วน
2020-10-01,12:42:46,12:44:44,12:50:22,12:54:55,13:13:06,13:14:31,13.8243387,100.557943,13.8270341,100.5645341,13.85543711,100.5479227,ร้านก้อยร้อยลาภ,Thai,อาหารอีสาน
2020-10-11,17:00:14,17:02:12,17:09:19,17:10:36,17:46:32,17:46:57,13.8256517,100.563115,13.8270341,100.5645341,13.85340308,100.6360972,ร้าน ป.ตรี อาหารและเครื่องดี่ม,Thai,อาหารตามสั่ง
2020-10-10,21:41:02,21:42:57,21:58:52,22:05:11,22:35:07,22:35:37,13.8230532,100.564343,13.8401798,100.5423255,13.786216,100.573084,กิวกิวเต้ ประชาชื่น,Japanese,ปิ้งย่าง
2020-10-07,18:43:03,18:45:01,19:01:45,19:15:49,20:00:33,20:01:57,13.8258332,100.54748,13.8280084,100.5739745,13.74111,100.557812,ร้านป้าโอ๋ ลุงหมี,Thai,อาหารตามสั่ง
2020-10-04,19:48:09,19:49:37,19:55:12,20:00:00,20:28:07,20:28:50,13.8227431,100.568891,13.8270341,100.5645341,13.752088,100.53471,ร้านเกี๋ยวเตี๋ยวแม่แหวน,Thai,ร้านก๋วยเตี๋ยว
2020-10-14,20:45:01,20:46:00,20:54:41,21:04:25,21:18:08,21:18:24,13.8279428,100.566523,13.8270341,100.5645341,13.83561,100.573344,บังหมาน,Thai,อาหารทะเล
2020-10-13,18:54:26,18:55:29,19:09:42,19:15:38,19:34:44,19:35:45,13.8286714,100.550984,13.8270341,100.5645341,13.7777392,100.5787667,ร้านใบเตย,Thai,อาหารตามสั่ง
2020-10-12,20:49:12,20:49:29,21:06:03,21:08:26,21:42:52,21:43:21,13.8203368,100.553135,13.841296,100.5493439,13.79094,100.574658,ข้าวบ้านฉัน,Thai,อาหารตามสั่ง
2020-10-04,21:52:25,21:54:06,22:02:42,22:10:30,22:28:59,22:29:51,13.8236399,100.553495,13.8283918,100.5527541,13.840772,100.572248,ร้านเชิญมาลองอาหารตามสั่ง,Thai,อาหารตามสั่ง
2020-10-07,11:13:38,11:15:21,11:25:55,11:40:00,12:26:00,12:27:13,13.8190701,100.552425,13.8374458,100.5405386,13.753702,100.564323,ส้มตำ ไก่ย่าง ประชาชื่น 34,Thai,อาหารอีสาน
2020-10-13,08:23:00,08:23:59,08:33:47,08:38:47,09:33:42,09:34:54,13.8248123,100.552876,13.8246205,100.5633957,13.740195,100.57825,ร้านน้ำพริกบ้านย่า,Thai,อาหารตามสั่ง
2020-10-02,14:41:25,14:43:10,14:57:04,15:02:00,15:19:32,15:20:53,13.8206865,100.556637,13.8270341,100.5645341,13.7983381,100.5873659,ร้านอาหารตามสั่ง ตามใจปาก,Thai,อาหารตามสั่ง
2020-10-03,15:03:01,15:04:56,15:15:42,15:22:25,15:33:09,15:33:55,13.8290309,100.560323,13.8259476,100.5710006,13.806195,100.573053,ร้านลาบยโสธร แซ่บ100%,Thai,อาหารอีสาน
2020-10-14,09:50:59,09:52:19,10:03:47,10:06:57,10:39:51,10:40:16,13.8195778,100.56791,13.8259715,100.55715,13.744071,100.558644,Ploen,Thai,อาหารตามสั่ง
2020-10-11,12:04:54,12:05:28,12:20:20,12:26:14,13:02:20,13:02:44,13.8221545,100.555918,13.828221,100.566472,13.83663,100.504437,McDonald's,International,อาหารจานด่วน
2020-10-08,09:58:02,09:58:14,10:02:56,10:05:13,10:36:14,10:37:18,13.8213219,100.557439,13.8260839,100.5609203,13.880844,100.599657,ร้านอาหารตามสั่ง ครัวมิตรภาพ พหลโยธิน 23,Thai,อาหารตามสั่ง
2020-10-13,20:13:03,20:13:43,20:26:41,20:41:05,21:21:20,21:21:53,13.8232086,100.559637,13.8208574,100.5793538,13.763003,100.546395,ร้านส้มตำเงินล้าน,Thai,อาหารอีสาน
2020-10-03,09:37:00,09:38:12,09:43:06,09:47:22,10:01:11,10:01:55,13.8263263,100.555803,13.8246205,100.5633957,13.822103,100.536214,หมึกย่างแม่ไก่ ร้านขายปลาหมึก กทม,Thai,อาหารทะเล
2020-10-05,18:26:56,18:28:13,18:35:02,18:46:29,19:24:13,19:25:39,13.8243429,100.56941,13.821011,100.5555603,13.7869491,100.6077452,พี่หนูตามใจ,Thai,อาหารตามสั่ง
2020-10-08,12:26:56,12:28:28,12:35:53,12:45:14,13:33:39,13:34:44,13.8257149,100.554384,13.8239427,100.566485,13.770979,100.63033,ลาบเป็ดอุดร พหลโยธิน24,Thai,อาหารอีสาน
2020-10-01,09:22:19,09:22:52,09:47:16,10:00:28,10:51:25,10:51:40,13.8260118,100.565837,13.8299181,100.5339571,13.740277,100.566035,ถนัดกินกลางซอย,Thai,อาหารตามสั่ง
2020-10-11,09:11:31,09:13:03,09:21:01,09:35:48,09:54:35,09:55:24,13.8203365,100.565964,13.8270341,100.5645341,13.830981,100.535008,ร้านบ้านเวียดนาม,Vietnam,อาหารตามสั่ง
2020-10-03,19:10:25,19:10:38,19:22:55,19:29:59,20:18:32,20:19:24,13.8246981,100.550423,13.8420914,100.5426436,13.746778,100.544107,Little Rabbit Lounge and Restaurant,Thai,อาหารตามสั่ง
2020-10-04,13:26:15,13:26:23,13:30:26,13:39:05,14:20:10,14:20:26,13.8276689,100.568269,13.8270341,100.5645341,13.755132,100.568902,ร้านเกี๋ยวเตี๋ยวแม่แหวน,Thai,ร้านก๋วยเตี๋ยว
2020-10-07,09:08:47,09:10:09,09:17:07,09:25:05,10:02:27,10:03:33,13.8255968,100.566033,13.8285458,100.5631067,13.889075,100.578039,ก๋วยเตี๋ยวเรือ นายบุญ,Thai,ร้านก๋วยเตี๋ยว
2020-10-04,11:19:32,11:19:45,11:22:51,11:33:19,12:02:41,12:03:57,13.8285557,100.566893,13.8270341,100.5645341,13.886641,100.603073,ร้านบ้านเวียดนาม,Vietnam,อาหารตามสั่ง
2020-10-13,17:08:53,17:10:02,17:19:09,17:32:45,18:04:43,18:05:52,13.8210932,100.557953,13.8270341,100.5645341,13.774685,100.573913,ร้านใบเตย,Thai,อาหารตามสั่ง
2020-10-09,09:06:46,09:07:30,09:13:39,09:25:06,09:37:57,09:38:24,13.8195971,100.567339,13.8232357,100.560739,13.829169,100.527111,ร้านตู้ปลา หลังชินวัตร3,Thai,อาหารตามสั่ง
2020-10-03,19:16:11,19:17:19,19:30:05,19:37:08,20:15:18,20:16:29,13.8268379,100.550857,13.8228114,100.5654557,13.85340308,100.6360972,สมตำคุณชาย,Thai,อาหารอีสาน
2020-10-07,08:10:54,08:11:15,08:21:08,08:30:57,09:02:24,09:03:21,13.8216523,100.555471,13.8246205,100.5633957,13.8320335,100.6132005,วอพเฟอร์เบลเยี่ยม กทม ร้านขายวอพเฟอร์,Thai,ของหวาน
2020-10-13,09:56:18,09:57:23,10:03:41,10:08:20,10:34:54,10:36:12,13.824889,100.549661,13.8270341,100.5645341,13.786469,100.555054,ร้านเอเกมส์,Thai,อาหารตามสั่ง
2020-10-02,12:28:57,12:29:44,12:38:05,12:41:31,13:08:58,13:09:17,13.8210385,100.568266,13.8270341,100.5645341,13.790344,100.537029,ร้านยำไม่ได้นอน เว้ย,Thai,อาหารตามสั่ง
2020-10-10,19:17:20,19:17:50,19:24:31,19:25:23,20:14:34,20:15:32,13.8263011,100.556782,13.8256273,100.559812,13.740273,100.580105,ร้านอาหารจานใหญ่ หลังปั้ม ปตท. ซ.วิภาวดี32,Thai,อาหารตามสั่ง
2020-10-05,13:18:12,13:18:54,13:31:12,13:43:04,14:28:04,14:29:31,13.8280977,100.557192,13.8272046,100.536048,13.748585,100.561538,ไก่ย่างห้าดาว กรุงเทพ-นนท์44,Thai,Fast Food
2020-10-13,15:57:36,15:58:47,16:15:44,16:22:30,16:38:01,16:39:20,13.8215026,100.546718,13.828221,100.566472,13.79784,100.563673,McDonald's,International,อาหารจานด่วน
2020-10-11,20:41:25,20:42:48,20:48:10,20:51:57,21:44:10,21:44:18,13.8231011,100.563123,13.8245607,100.5642677,13.86893231,100.4890773,สมาคมส่งเสริมร้านอาหารแฟรนไชส์ไทย-เมียนมาร์,Myanmar,อาหารตามสั่ง
2020-10-05,12:12:23,12:14:09,12:24:31,12:39:00,12:59:41,13:01:00,13.8237101,100.546994,13.8270341,100.5645341,13.77807141,100.5745094,ร้านเลี่ยงเมืองปลาเผา,Thai,อาหารอีสาน
2020-10-07,16:47:25,16:47:49,16:55:23,16:56:35,17:10:29,17:11:44,13.8266416,100.563718,13.8270341,100.5645341,13.818726,100.584694,อาหารอิสลามฮัยดัร,Isram,อาหารฮาลาล
2020-10-07,20:33:48,20:35:30,20:42:12,20:52:54,21:24:43,21:25:08,13.8270612,100.564831,13.8270341,100.5645341,13.8809957,100.4999601,หม่าล่า,Thai,อาหารจานด่วน
2020-10-02,21:29:05,21:30:13,21:35:52,21:37:14,21:51:25,21:51:32,13.8194168,100.560678,13.8270341,100.5645341,13.807865,100.569738,ข้าวมันไก่3,Thai,อาหารตามสั่ง
2020-10-14,19:32:53,19:33:48,19:53:51,20:04:11,20:36:05,20:36:12,13.8221912,100.567111,13.8369959,100.5404075,13.7890408,100.555649,Hia Lek,Thai,อาหารตามสั่ง
2020-10-07,16:31:09,16:32:31,16:43:22,16:49:19,17:32:07,17:33:35,13.8245596,100.563516,13.8246298,100.5792843,13.862024,100.504931,ร้านวิไลนำโชค,Thai,อาหารตามสั่ง
2020-10-02,12:59:11,13:00:09,13:04:46,13:06:10,13:42:30,13:43:48,13.8192915,100.563092,13.8270341,100.5645341,13.741594,100.564391,ร้านตะวันข้าวขาหมู,Thai,อาหารตามสั่ง
2020-10-14,11:55:41,11:57:05,12:14:57,12:19:05,13:02:08,13:02:37,13.8226599,100.563683,13.8392356,100.5513614,13.764076,100.539792,นัวขนาด,Thai,อาหารอีสาน
2020-10-10,10:12:09,10:12:20,10:19:14,10:28:40,10:58:50,10:59:23,13.8264931,100.555772,13.8270341,100.5645341,13.753702,100.564323,ร้านอาหารตามสั่ง ตามใจปาก,Thai,อาหารตามสั่ง
2020-10-02,14:36:14,14:38:12,14:44:15,14:48:46,15:13:39,15:14:39,13.8253401,100.562119,13.8259715,100.55715,13.839363,100.581796,Ploen,Thai,อาหารตามสั่ง
2020-10-09,10:54:46,10:55:35,11:07:38,11:20:40,11:59:20,12:00:36,13.821752,100.556338,13.8270341,100.5645341,13.775902,100.541684,ร้านอาหารจานเปล ละเบ๋อ,Thai,อาหารตามสั่ง
2020-10-12,09:52:34,09:53:46,10:03:12,10:06:35,10:43:46,10:45:07,13.8272595,100.568065,13.8286272,100.5708436,13.771412,100.583671,ร้านอาหารอร่อย@พหล30,Thai,อาหารตามสั่ง
2020-10-08,11:58:16,11:59:09,12:16:57,12:28:20,13:05:58,13:07:12,13.8198506,100.547927,13.8266157,100.5659024,13.85799844,100.6451797,ร้านข้าวซอย&ขนมจีน,Thai,อาหารเหนือ
2020-10-08,17:40:08,17:40:38,17:47:34,17:59:35,18:26:43,18:27:17,13.8219263,100.552949,13.8246205,100.5633957,13.77143,100.594757,ร้านอาหารอมร,Thai,อาหารตามสั่ง
2020-10-04,15:38:01,15:39:06,15:53:02,15:55:17,16:39:04,16:40:27,13.8197727,100.555826,13.8270341,100.5645341,13.741623,100.575339,ร้าน อาหารตามสั่งแม็กกี้,Thai,อาหารตามสั่ง
2020-10-12,20:16:22,20:17:55,20:35:46,20:38:07,21:22:44,21:22:59,13.8196389,100.562913,13.8345401,100.5405318,13.75214216,100.5341398,Soontharee Restaurant,Thai,อาหารตามสั่ง
2020-10-14,17:18:14,17:19:40,17:25:18,17:30:08,17:46:00,17:46:18,13.8217424,100.566457,13.8270341,100.5645341,13.787668,100.544489,ร้านขายก๋วยเตี๋ยว,Thai,ร้านก๋วยเตี๋ยว
2020-10-13,20:19:41,20:20:25,20:31:55,20:33:05,21:08:19,21:09:40,13.8286056,100.564867,13.8281888,100.5774268,13.748585,100.561538,ร้านบ้านเรา,Thai,อาหารตามสั่ง
2020-10-07,15:57:45,15:57:58,16:14:05,16:28:22,16:45:23,16:45:49,13.8215391,100.569404,13.8309975,100.535989,13.820882,100.568217,Buzza,International,อาหารตามสั่ง
2020-10-06,08:26:27,08:27:40,08:39:46,08:43:27,09:17:43,09:18:06,13.8289736,100.561426,13.8263075,100.5738629,13.763939,100.569336,ร้านแซนวิชประตูเขียว,Thai,Quick Meal
2020-10-14,12:28:22,12:29:27,12:39:23,12:42:50,13:15:57,13:17:24,13.8202289,100.551259,13.826941,100.5655884,13.835382,100.657198,ร้านข้าวแกง ครัววท.บ. (แม่ละเมียด),Thai,อาหารตามสั่ง
2020-10-13,17:12:55,17:14:27,17:21:41,17:30:22,18:23:42,18:24:46,13.8191018,100.550358,13.8306088,100.5435153,13.739821,100.567415,แซบนัว ครัวอิสาน สาขาประชานุกุล,Thai,อาหารอีสาน
2020-10-04,17:39:42,17:40:22,17:54:12,18:02:35,18:17:59,18:19:08,13.8248477,100.553783,13.8363066,100.5505987,13.854761,100.516177,ห้างหุ้นส่วนจำกัด ปัญญาซีฟู๊ด,Thai,อาหารทะเล
2020-10-03,14:18:40,14:19:13,14:29:06,14:29:20,15:06:40,15:07:54,13.8221488,100.565057,13.8270089,100.5650808,13.760885,100.623334,SCB East Food Court,Thai,อาหารตามสั่ง
2020-10-12,16:47:34,16:47:48,17:02:09,17:16:51,17:22:59,17:23:18,13.8225823,100.546283,13.8270341,100.5645341,13.81776982,100.565006,ร้านขายก๋วยเตี๋ยว,Thai,ร้านก๋วยเตี๋ยว
2020-10-01,20:31:21,20:32:05,20:38:47,20:42:38,20:54:40,20:55:01,13.8203398,100.558792,13.8296455,100.5620011,13.826494,100.54297,This eat it,Thai,อาหารตามสั่ง
2020-10-01,17:23:43,17:25:02,17:32:59,17:42:44,18:18:29,18:19:00,13.8251068,100.562382,13.8208651,100.5558353,13.745757,100.557177,อาหารตามสั่ง ซอยวิภาวดีรังสิต 11,Thai,อาหารตามสั่ง
2020-10-05,16:32:36,16:33:48,16:40:19,16:52:02,17:26:49,17:27:38,13.8205878,100.55893,13.8246205,100.5633957,13.780393,100.57996,หมึกย่างแม่ไก่ ร้านขายปลาหมึก กทม,Thai,อาหารทะเล
2020-10-04,10:33:45,10:35:26,10:38:31,10:40:39,11:02:21,11:03:51,13.8260898,100.565914,13.8270341,100.5645341,13.772067,100.579894,ร้านเจ๊เอ เตี๋ยวน้ำใส,Thai,ร้านก๋วยเตี๋ยว
2020-10-01,18:53:34,18:54:05,19:02:49,19:15:11,19:29:24,19:30:28,13.8236081,100.565769,13.8270341,100.5645341,13.838551,100.57451,ร้านในฝัน,Thai,อาหารตามสั่ง
2020-10-09,10:54:03,10:54:39,11:10:35,11:21:28,12:24:56,12:25:50,13.8232802,100.556466,13.8374458,100.5405386,13.73978,100.562196,ส้มตำ ไก่ย่าง ประชาชื่น 34,Thai,อาหารอีสาน
2020-10-01,10:29:51,10:31:22,10:41:23,10:54:10,11:31:23,11:32:51,13.8286096,100.55316,13.8392356,100.5513614,13.746851,100.549509,นัวขนาด,Thai,อาหารอีสาน
2020-10-05,18:32:15,18:34:00,18:43:55,18:57:20,19:18:00,19:18:57,13.8264176,100.564895,13.8270341,100.5645341,13.79785,100.587337,ก๋วยเตี๊ยวบ้านยาย,Thai,ร้านก๋วยเตี๋ยว
2020-10-03,12:51:16,12:52:07,13:06:37,13:08:44,13:24:23,13:25:09,13.8239459,100.546762,13.828221,100.566472,13.798052,100.596129,McDonald's,International,อาหารจานด่วน
2020-10-11,21:46:48,21:46:56,22:00:13,22:04:47,22:29:36,22:29:52,13.8218075,100.5462,13.8208651,100.5558353,13.857393,100.609957,อาหารตามสั่ง ซอยวิภาวดีรังสิต 11,Thai,อาหารตามสั่ง
2020-10-04,17:58:25,17:59:49,18:03:37,18:05:21,18:37:54,18:38:40,13.8208042,100.569248,13.8270341,100.5645341,13.742949,100.588961,โคลเวอร์ เฮ้าส์ พีพี,Thai,อาหารตามสั่ง
2020-10-12,09:00:35,09:00:51,09:10:47,09:11:52,09:39:24,09:40:47,13.8285094,100.566001,13.8281057,100.5639419,13.782208,100.571087,Sweet Pea,Thai,อาหารตามสั่ง
2020-10-01,09:03:19,09:03:50,09:12:18,09:17:42,10:02:43,10:04:06,13.8247786,100.554569,13.8255507,100.5595669,13.894968,100.611887,ครัววิภาฯ32,Thai,อาหารตามสั่ง
2020-10-07,09:43:55,09:45:52,10:00:32,10:08:55,10:35:19,10:36:37,13.8190553,100.569336,13.8270341,100.5645341,13.781352,100.543174,ร้านเม้งเป็ดย่างสาขา2,Thai,อาหารตามสั่ง
2020-10-11,16:19:47,16:20:05,16:26:35,16:28:58,16:57:52,16:59:06,13.829294,100.562136,13.8259715,100.55715,13.84110237,100.5129627,Ploen,Thai,อาหารตามสั่ง
2020-10-11,11:12:46,11:14:07,11:17:22,11:26:48,12:12:03,12:13:31,13.826174,100.562379,13.8285458,100.5631067,13.7878,100.626688,ก๋วยเตี๋ยวเรือ นายบุญ,Thai,ร้านก๋วยเตี๋ยว
2020-10-02,11:01:58,11:02:43,11:12:13,11:13:42,11:50:21,11:50:51,13.8200018,100.561541,13.8233794,100.5506289,13.74543,100.556764,ร้านครัวตามใจสั่ง,Thai,อาหารตามสั่ง
2020-10-09,17:25:44,17:26:37,17:34:09,17:46:07,18:17:12,18:18:26,13.8191768,100.566892,13.8246205,100.5633957,13.857393,100.609957,ร้านขายผัดไทย,Thai,ร้านก๋วยเตี๋ยว
2020-10-05,21:03:53,21:04:54,21:19:26,21:20:05,21:52:01,21:52:25,13.8229529,100.552782,13.8273022,100.5358786,13.8809957,100.4999601,ร้านลูกชิ้นทอด,Thai,อาหารจานด่วน
2020-10-04,09:44:47,09:46:03,09:52:39,09:59:13,10:48:11,10:49:09,13.8195858,100.564054,13.8259715,100.55715,13.745276,100.562672,Ploen,Thai,อาหารตามสั่ง
2020-10-10,08:10:36,08:12:13,08:18:55,08:29:05,09:07:42,09:08:55,13.8223499,100.565028,13.8246205,100.5633957,13.897939,100.577395,ร้านหมูปิ้งลุงเม,Thai,อาหารจานด่วน
2020-10-11,13:39:48,13:40:16,13:50:08,14:04:45,14:30:57,14:32:26,13.8269164,100.546996,13.8270341,100.5645341,13.84476218,100.5275843,ร้านขนมจีน,Thai,ขนมจีน
2020-10-01,08:31:38,08:32:23,08:44:13,08:47:28,08:59:36,09:00:13,13.8203433,100.552704,13.8397718,100.5516388,13.83914,100.5643585,Pomme de Terre,Thai,อาหารตามสั่ง
2020-10-12,20:33:13,20:34:17,20:44:15,20:57:45,21:43:29,21:44:12,13.8274841,100.561554,13.8246205,100.5633957,13.74543,100.556764,ร้านวราภรณ์ วิภาวดี,Thai,อาหารตามสั่ง
2020-10-08,09:26:04,09:28:03,09:31:46,09:38:32,09:50:47,09:50:56,13.8261147,100.557268,13.8270341,100.5645341,13.806195,100.573053,ร้านเลี่ยงเมืองปลาเผา,Thai,อาหารอีสาน
2020-10-06,10:09:59,10:11:08,10:20:37,10:32:38,11:19:05,11:19:53,13.819609,100.549689,13.8363066,100.5505987,13.747923,100.528281,ห้างหุ้นส่วนจำกัด ปัญญาซีฟู๊ด,Thai,อาหารทะเล
2020-10-12,13:20:56,13:22:56,13:36:22,13:51:09,14:41:40,14:42:36,13.8207403,100.549185,13.8307766,100.5386816,13.742187,100.559938,About Beef,International,สเต๊ก
2020-10-11,13:38:04,13:38:40,13:54:28,13:58:50,14:55:23,14:56:30,13.8217211,100.562916,13.8401929,100.5483626,13.743477,100.558043,Spagetti House,International,สปาเก็ตตี้
2020-10-06,15:38:10,15:40:05,15:47:51,15:52:08,16:43:38,16:44:06,13.8281023,100.557264,13.8270341,100.5645341,13.835382,100.657198,ข้าวมันไก่3,Thai,อาหารตามสั่ง
2020-10-07,21:01:44,21:03:22,21:12:09,21:26:45,21:49:07,21:49:18,13.8190928,100.561322,13.8246205,100.5633957,13.775902,100.541684,ร้านน้ำพริกบ้านย่า,Thai,อาหารตามสั่ง
2020-10-08,17:27:19,17:28:00,17:41:02,17:48:53,18:23:00,18:24:24,13.8223585,100.55529,13.8397399,100.5520175,13.790344,100.537029,HARUKI japanese restaurant,Japanese,อาหารตามสั่ง
2020-10-10,12:41:46,12:42:07,12:50:07,12:52:43,13:07:10,13:07:21,13.8227233,100.560129,13.8280804,100.5640747,13.8179288,100.591363,Jim's,Thai,อาหารตามสั่ง
2020-10-12,11:23:08,11:24:47,11:41:01,11:48:25,12:18:09,12:19:13,13.8249434,100.555052,13.8260587,100.5266371,13.762357,100.537194,Viet Cuisine Garden and Cafe Wongsawang,Vietnam,อาหารตามสั่ง
2020-10-01,09:37:18,09:38:11,09:52:30,10:00:43,10:40:48,10:41:28,13.8228856,100.547429,13.8276518,100.5678331,13.858143,100.627188,ข้าวผัดปู เมืองทอง 1 • เมเจอร์รัชโยธิน,Thai,อาหารตามสั่ง
2020-10-11,08:35:23,08:36:52,08:46:42,08:54:43,09:17:15,09:17:55,13.8244377,100.551178,13.8246205,100.5633957,13.784444,100.569534,Kingoctopus ราชาปลาหมึก,Thai,อาหารทะเล
2020-10-13,09:29:14,09:31:08,09:44:56,09:47:27,10:33:05,10:33:14,13.8246978,100.553052,13.8307766,100.5386816,13.740129,100.559066,About Beef,International,สเต๊ก
2020-10-02,20:20:50,20:22:37,20:28:31,20:33:58,21:06:59,21:08:03,13.8284484,100.56967,13.826941,100.5655884,13.76301,100.541963,ร้านข้าวแกง ครัววท.บ. (แม่ละเมียด),Thai,อาหารตามสั่ง
2020-10-07,19:13:00,19:14:43,19:23:23,19:34:00,20:05:23,20:05:37,13.8283881,100.561941,13.8255507,100.5595669,13.772272,100.609942,ครัววิภาฯ32,Thai,อาหารตามสั่ง
2020-10-05,15:20:18,15:21:31,15:38:52,15:51:42,16:06:06,16:07:27,13.8228297,100.547808,13.8405692,100.5426787,13.826494,100.54297,Pike/Pine Open Kitchen and Bake Bar,International,อาหารตามสั่ง
2020-10-08,20:30:46,20:31:07,20:42:12,20:51:47,21:36:22,21:37:22,13.8288551,100.55248,13.8232357,100.560739,13.760082,100.535848,ร้านตู้ปลา หลังชินวัตร3,Thai,อาหารตามสั่ง
2020-10-13,19:31:44,19:33:11,19:44:10,19:54:12,20:02:48,20:03:09,13.8276422,100.54866,13.8268653,100.5652273,13.814451,100.570363,SCB Mae Manee Food Center,Thai,อาหารตามสั่ง
2020-10-04,17:07:26,17:09:23,17:16:42,17:26:48,17:59:22,18:00:10,13.8283174,100.557626,13.8276427,100.5638852,13.791558,100.592174,ปันกัน by perfetto coffee,Thai,อาหารตามสั่ง
2020-10-13,10:10:42,10:12:13,10:29:29,10:39:29,11:34:50,11:35:42,13.8286301,100.558457,13.8405692,100.5426787,13.73992665,100.5725507,Pike/Pine Open Kitchen and Bake Bar,International,อาหารตามสั่ง
2020-10-10,17:06:52,17:07:16,17:22:03,17:35:46,18:06:48,18:07:53,13.8212119,100.558435,13.8283918,100.5527541,13.889075,100.578039,ร้านเชิญมาลองอาหารตามสั่ง,Thai,อาหารตามสั่ง
2020-10-13,21:55:18,21:55:45,22:13:16,22:18:13,23:11:10,23:11:26,13.8242044,100.560951,13.8307766,100.5386816,13.749389,100.563926,About Beef,International,สเต๊ก
2020-10-13,11:45:01,11:45:08,11:58:06,11:59:48,12:50:57,12:52:23,13.8284433,100.548981,13.8284372,100.5592143,13.74013564,100.5851629,ถ่ายเอกสาร / อาหารตามสั่ง,Thai,อาหารตามสั่ง
2020-10-10,14:12:12,14:13:16,14:17:58,14:19:46,15:01:44,15:02:58,13.8213827,100.565602,13.8270341,100.5645341,13.848623,100.636747,ร้านตะวันข้าวขาหมู,Thai,อาหารตามสั่ง
2020-10-09,14:18:32,14:20:31,14:25:02,14:35:13,15:06:41,15:07:06,13.8292782,100.562616,13.8270341,100.5645341,13.753479,100.534171,ร้านวันซุปแซ่บ บีเอสพี,Thai,อาหารตามสั่ง
2020-10-12,10:50:44,10:51:05,10:59:43,11:11:33,11:20:28,11:20:57,13.8229067,100.567483,13.8246205,100.5633957,13.82085,100.568243,ร้านก๋วยเตี๋ยวไก่มะระ,Thai,ร้านก๋วยเตี๋ยว
2020-10-10,21:27:30,21:29:12,21:39:15,21:42:37,22:28:40,22:28:57,13.8242507,100.554238,13.8208574,100.5793538,13.741904,100.566949,ร้านส้มตำเงินล้าน,Thai,อาหารอีสาน
2020-10-08,13:15:19,13:16:54,13:27:06,13:28:43,14:01:44,14:01:56,13.8231728,100.550703,13.8246205,100.5633957,13.743904,100.561793,กระเพาะปลาแม่มาลี,Thai,อาหารตามสั่ง
2020-10-11,21:34:16,21:34:34,21:43:42,21:47:51,22:30:24,22:30:50,13.8220526,100.559218,13.8281057,100.5639419,13.740165,100.555513,Sweet Pea,Thai,อาหารตามสั่ง
2020-10-13,11:29:46,11:30:49,11:50:28,11:54:41,12:17:44,12:19:02,13.8291294,100.568636,13.8294607,100.5349546,13.777822,100.540274,Queen Steak House,International,สเต๊ก
2020-10-13,16:10:42,16:12:42,16:18:56,16:32:25,16:50:34,16:51:09,13.8250758,100.565649,13.8270341,100.5645341,13.794282,100.549671,ร้านเลี่ยงเมืองปลาเผา,Thai,อาหารอีสาน
2020-10-07,16:06:32,16:08:24,16:16:14,16:24:18,16:58:28,16:58:49,13.8236737,100.563452,13.8233015,100.559162,13.89720734,100.5519374,อิราชัยมาเสะ,Japanese,อาหารตามสั่ง
2020-10-04,08:54:58,08:56:47,09:01:13,09:09:27,09:49:01,09:50:27,13.8213662,100.557848,13.8228114,100.5654557,13.74013564,100.5851629,สมตำคุณชาย,Thai,อาหารอีสาน
2020-10-11,12:18:09,12:18:44,12:27:35,12:34:24,12:59:39,13:00:53,13.8260745,100.548909,13.8270341,100.5645341,13.888032,100.600109,ร้านเม้งเป็ดย่างสาขา2,Thai,อาหารตามสั่ง
2020-10-05,20:42:52,20:42:58,20:53:26,20:56:28,21:18:57,21:19:21,13.8252607,100.55045,13.8268653,100.5652273,13.872622,100.562919,SCB Mae Manee Food Center,Thai,อาหารตามสั่ง
2020-10-02,08:19:15,08:19:21,08:26:40,08:32:30,09:30:33,09:31:18,13.8194171,100.54697,13.8328053,100.5394589,13.738602,100.572788,ร้านน้องแคนา ข้าวขาหมู,Thai,อาหารตามสั่ง
2020-10-09,08:05:34,08:06:58,08:15:20,08:22:37,09:06:55,09:07:31,13.8271859,100.566002,13.8264589,100.5649431,13.746005,100.545457,ร้านเตยหอม กะเพราไส้แตก,Thai,อาหารตามสั่ง
2020-10-03,09:53:51,09:54:18,10:00:20,10:03:05,10:51:33,10:52:43,13.8291425,100.560706,13.8246205,100.5633957,13.754418,100.542475,วอพเฟอร์เบลเยี่ยม กทม ร้านขายวอพเฟอร์,Thai,ของหวาน
2020-10-12,09:35:51,09:37:16,09:57:35,09:58:11,10:43:40,10:44:39,13.8226375,100.563189,13.8420914,100.5426436,13.738166,100.568286,Little Rabbit Lounge and Restaurant,Thai,อาหารตามสั่ง
2020-10-10,09:33:59,09:35:40,09:44:04,09:46:56,10:14:31,10:15:59,13.8272787,100.553473,13.8283918,100.5527541,13.909623,100.55349,ร้านเชิญมาลองอาหารตามสั่ง,Thai,อาหารตามสั่ง
2020-10-03,10:27:42,10:29:07,10:40:58,10:50:39,11:42:54,11:43:59,13.8225392,100.558758,13.8259476,100.5710006,13.745223,100.557084,ร้านลาบยโสธร แซ่บ100%,Thai,อาหารอีสาน
2020-10-10,14:18:06,14:19:36,14:29:47,14:35:56,14:53:33,14:54:44,13.826903,100.56456,13.8219752,100.575644,13.794186,100.588656,ร้านอาหารไก่ย่างเสือใหญ่,Thai,อาหารอีสาน
2020-10-07,12:42:37,12:43:56,12:50:31,12:57:30,13:19:58,13:20:43,13.823945,100.559937,13.8208651,100.5558353,13.816222,100.6104,อาหารตามสั่ง ซอยวิภาวดีรังสิต 11,Thai,อาหารตามสั่ง
2020-10-10,08:54:40,08:56:14,09:02:26,09:03:36,09:27:24,09:28:03,13.8254253,100.547185,13.8347148,100.5408037,13.8393737,100.575472,The Foodie by Kannicha kitchen,Thai,อาหารตามสั่ง
2020-10-04,13:28:25,13:29:33,13:35:41,13:48:37,13:59:55,14:00:23,13.8285442,100.561447,13.8246205,100.5633957,13.829614,100.572594,JIWALAK,Thai,อาหารคลีน
2020-10-04,16:43:58,16:45:52,16:53:44,16:53:52,17:30:20,17:31:18,13.8263313,100.567594,13.8310562,100.5707308,13.743477,100.558043,ร้านอาหารอีสานแม่อลิส,Thai,อาหารอีสาน
2020-10-04,19:38:12,19:39:29,20:01:20,20:02:37,20:34:11,20:35:16,13.8265372,100.567537,13.8299181,100.5339571,13.752162,100.534294,ถนัดกินกลางซอย,Thai,อาหารตามสั่ง
2020-10-14,21:11:23,21:11:44,21:21:27,21:32:38,21:47:20,21:47:30,13.8263924,100.559014,13.8246205,100.5633957,13.83093,100.540458,ร้านเฮียแจ๊คอาหารตามสั่ง หน้าSCB,Thai,อาหารตามสั่ง
2020-10-10,16:42:14,16:42:51,16:50:12,17:03:58,17:27:53,17:29:10,13.8203913,100.546239,13.8233794,100.5506289,13.83640752,100.5800329,ร้านครัวตามใจสั่ง,Thai,อาหารตามสั่ง
2020-10-12,11:48:29,11:48:52,11:52:42,11:54:35,12:27:48,12:27:59,13.8196865,100.564228,13.8270341,100.5645341,13.899873,100.540041,ร้านนางละอองคำ,Thai,อาหารตามสั่ง
2020-10-09,18:57:36,18:58:07,19:06:17,19:07:37,19:39:00,19:39:59,13.8235339,100.548751,13.8281057,100.5639419,13.859042,100.519734,Sweet Pea,Thai,อาหารตามสั่ง
2020-10-06,17:32:21,17:33:56,17:52:47,17:58:01,18:37:49,18:38:11,13.8211954,100.551796,13.8281888,100.5774268,13.750363,100.583214,ร้านบ้านเรา,Thai,อาหารตามสั่ง
2020-10-01,12:20:10,12:21:14,12:29:29,12:31:38,12:45:34,12:46:32,13.8232726,100.564152,13.8310315,100.5496052,13.80620216,100.5562047,ร้านลมโชย,Thai,อาหารตามสั่ง
2020-10-04,19:40:48,19:42:27,20:00:48,20:09:13,20:40:51,20:41:54,13.8263158,100.547167,13.8218884,100.5796905,13.819354,100.531991,ตาโย่ง ลุงกัง อาหารตามสั่ง,Thai,อาหารตามสั่ง
2020-10-13,09:45:13,09:46:41,09:56:35,10:05:56,10:33:12,10:34:22,13.8196006,100.556732,13.8246205,100.5633957,13.770859,100.608249,ร้านก๋วยเตี๋ยวไก่ต้มยำแม่เล็ก,Thai,ร้านก๋วยเตี๋ยว
2020-10-01,21:22:36,21:23:59,21:32:32,21:36:04,22:00:27,22:01:46,13.8201632,100.560801,13.8246205,100.5633957,13.77807141,100.5745094,ร้านเฮียแจ๊คอาหารตามสั่ง หน้าSCB,Thai,อาหารตามสั่ง
2020-10-02,12:00:52,12:02:01,12:16:54,12:17:58,12:36:05,12:36:45,13.8232954,100.560379,13.8334697,100.5452996,13.809578,100.5911,TEVA FOOD,Thai,อาหารตามสั่ง
2020-10-12,14:45:45,14:45:55,14:54:40,15:03:00,15:55:04,15:55:30,13.8288242,100.563638,13.8270341,100.5645341,13.86893231,100.4890773,อาหารตามสั่งอิสานอินดี้,Thai,อาหารอีสาน
2020-10-09,13:40:22,13:41:25,13:49:35,13:50:55,14:05:05,14:05:58,13.8225303,100.547458,13.8254566,100.5590536,13.819058,100.535955,ก๋วยเตี๋ยวเรือวิภาฯ,Thai,ร้านก๋วยเตี๋ยว
2020-10-06,17:01:15,17:02:04,17:17:40,17:32:11,18:26:56,18:27:48,13.8242884,100.563142,13.8397718,100.5516388,13.75393,100.564836,Pomme de Terre,Thai,อาหารตามสั่ง
2020-10-06,21:22:45,21:23:08,21:26:55,21:31:10,22:01:29,22:02:44,13.8281902,100.565899,13.8270341,100.5645341,13.743058,100.558015,เต็มอิ่ม,Thai,อาหารตามสั่ง
2020-10-04,15:25:12,15:25:26,15:28:38,15:33:20,15:55:52,15:56:58,13.8274224,100.567199,13.8293497,100.5626028,13.782611,100.602703,Wolfpack @ Box Space,Thai,อาหารอีสาน
2020-10-09,16:46:16,16:48:14,16:53:39,16:58:56,17:31:55,17:32:26,13.8219727,100.556675,13.8283999,100.5621363,13.855172,100.517339,ร้านป้าอ๋องตามสั่งริมคลอง,Thai,อาหารตามสั่ง
2020-10-05,09:23:28,09:24:55,09:44:12,09:51:51,10:01:53,10:03:14,13.8281066,100.561256,13.8299181,100.5339571,13.8299744,100.5459873,ถนัดกินกลางซอย,Thai,อาหารตามสั่ง
2020-10-01,10:50:01,10:51:01,11:05:17,11:10:00,11:54:24,11:54:59,13.8285911,100.551422,13.8246205,100.5633957,13.75939,100.541384,Kingoctopus ราชาปลาหมึก,Thai,อาหารทะเล
2020-10-14,16:30:00,16:30:29,16:38:34,16:40:39,17:04:15,17:05:38,13.8202283,100.565449,13.8246205,100.5633957,13.779476,100.539161,ร้านขายผัดไทย,Thai,ร้านก๋วยเตี๋ยว
2020-10-08,12:01:35,12:01:52,12:09:43,12:23:31,12:55:56,12:56:21,13.8256251,100.566446,13.8270341,100.5645341,13.8305943,100.6179857,ร้านวาตี,Thai,อาหารตามสั่ง
2020-10-04,19:20:04,19:20:18,19:33:52,19:37:34,19:59:00,19:59:11,13.8251422,100.567461,13.8272046,100.536048,13.7907692,100.5508569,ไก่ย่างห้าดาว กรุงเทพ-นนท์44,Thai,Fast Food
2020-10-04,16:01:03,16:02:59,16:07:39,16:16:36,16:37:36,16:39:05,13.8227417,100.563821,13.8270341,100.5645341,13.78644224,100.5432772,ร้านครัวคุณย่า,Thai,อาหารตามสั่ง
2020-10-07,18:19:18,18:19:43,18:28:55,18:41:37,18:59:19,18:59:25,13.8194897,100.557764,13.8246205,100.5633957,13.841195,100.587392,ร้านLoveshopping byคุณปูทะเล,Thai,อาหารทะเล
2020-10-10,21:39:45,21:40:52,21:55:05,22:07:35,22:31:41,22:32:30,13.8214745,100.547652,13.8270341,100.5645341,13.83053848,100.5251596,อาหารตามสั่งอิสานอินดี้,Thai,อาหารอีสาน
2020-10-05,13:17:37,13:17:51,13:25:41,13:35:55,14:18:51,14:19:25,13.8191306,100.546125,13.8246205,100.5633957,13.8615921,100.6201575,ก๋วยเตี๋ยวเรือวิศวะ,Thai,ร้านก๋วยเตี๋ยว
2020-10-03,11:43:35,11:43:50,11:49:57,11:50:07,12:25:18,12:26:47,13.8261141,100.559754,13.8238159,100.5664789,13.747713,100.557295,แซ่บอีสาน,Thai,อาหารอีสาน
2020-10-02,12:16:34,12:17:07,12:21:42,12:31:10,13:07:20,13:08:36,13.8215529,100.557625,13.8264589,100.5649431,13.755804,100.565882,ร้านเตยหอม กะเพราไส้แตก,Thai,อาหารตามสั่ง
2020-10-12,12:49:32,12:49:58,13:00:07,13:12:08,13:48:51,13:49:16,13.8267478,100.555184,13.8239427,100.566485,13.75948,100.53593,ลาบเป็ดอุดร พหลโยธิน24,Thai,อาหารอีสาน
2020-10-10,20:41:51,20:42:52,20:47:29,21:01:02,21:23:31,21:24:04,13.8232207,100.56378,13.8296455,100.5620011,13.778313,100.548449,This eat it,Thai,อาหารตามสั่ง
2020-10-10,08:11:11,08:13:07,08:18:48,08:26:54,08:56:40,08:57:13,13.8216573,100.560969,13.828221,100.566472,13.760938,100.5556042,McDonald's,International,อาหารจานด่วน
2020-10-13,19:45:07,19:46:51,19:58:31,19:59:03,20:22:04,20:22:37,13.8212555,100.560383,13.8119636,100.5616577,13.806375,100.528936,Hilly's Restaurant,International,อาหารตามสั่ง
2020-10-04,13:30:17,13:31:47,13:39:03,13:49:58,14:07:50,14:08:26,13.8252462,100.56138,13.8270341,100.5645341,13.80887821,100.5681509,ร้านพี้โย,Thai,อาหารตามสั่ง
2020-10-12,14:36:06,14:37:58,14:42:44,14:45:45,14:52:49,14:53:48,13.8250527,100.562041,13.8246205,100.5633957,13.820882,100.568217,JIWALAK,Thai,อาหารคลีน
2020-10-13,14:06:09,14:06:26,14:20:41,14:21:28,14:51:16,14:51:52,13.8244205,100.551001,13.8259476,100.5710006,13.7777392,100.5787667,ร้านลาบยโสธร แซ่บ100%,Thai,อาหารอีสาน
2020-10-02,18:26:30,18:27:41,18:35:54,18:50:52,19:43:58,19:44:26,13.8280328,100.549875,13.8270341,100.5645341,13.866871,100.489898,ร้านโตโต้ ตำแหลก,Thai,อาหารอีสาน
2020-10-05,18:49:24,18:51:19,19:01:01,19:15:00,19:39:01,19:40:09,13.8286416,100.554346,13.8394082,100.5508608,13.835037,100.580824,Michelle Gourmet,International,อาหารตามสั่ง
2020-10-01,19:21:04,19:22:35,19:32:20,19:35:19,20:19:35,20:19:48,13.8283002,100.546731,13.8283918,100.5527541,13.878941,100.598491,ร้านเชิญมาลองอาหารตามสั่ง,Thai,อาหารตามสั่ง
2020-10-12,11:02:50,11:04:48,11:07:55,11:12:14,11:57:31,11:58:42,13.8255334,100.553764,13.8208651,100.5558353,13.742339,100.545476,อาหารตามสั่ง ซอยวิภาวดีรังสิต 11,Thai,อาหารตามสั่ง
2020-10-10,11:12:20,11:12:26,11:26:44,11:30:31,12:09:22,12:10:38,13.8251399,100.54786,13.8246205,100.5633957,13.746466,100.556282,ร้านราดหน้า ข้าวผัดโบราณ Box Space,Thai,ร้านก๋วยเตี๋ยว
2020-10-06,15:50:41,15:51:06,15:59:22,16:10:44,16:44:43,16:45:36,13.8222552,100.568315,13.8280804,100.5640747,13.833951,100.661622,Jim's,Thai,อาหารตามสั่ง
2020-10-04,08:55:49,08:57:28,09:03:00,09:12:04,09:46:32,09:46:54,13.8202264,100.5693,13.8270341,100.5645341,13.789269,100.505612,ร้านยำไม่ได้นอน เว้ย,Thai,อาหารตามสั่ง
2020-10-04,08:49:38,08:50:47,09:02:42,09:06:25,09:33:17,09:34:33,13.8217175,100.554133,13.8275203,100.5654979,13.806351,100.600618,ร้านขาหมูอร่อยนะบายจอย,Thai,อาหารตามสั่ง
2020-10-01,18:34:08,18:34:56,18:51:43,19:05:47,19:20:08,19:21:06,13.8196747,100.557213,13.8246298,100.5792843,13.81776982,100.565006,ร้านวิไลนำโชค,Thai,อาหารตามสั่ง
2020-10-09,14:27:36,14:28:37,14:32:19,14:35:38,15:06:44,15:07:47,13.8206938,100.559906,13.8246205,100.5633957,13.7428505,100.5498939,หมึกย่างแม่ไก่ ร้านขายปลาหมึก กทม,Thai,อาหารทะเล
2020-10-03,10:52:36,10:53:21,11:00:57,11:08:18,11:47:36,11:49:03,13.827972,100.564181,13.8266438,100.5642468,13.754922,100.532263,ร้านเจ้สวย,Thai,อาหารตามสั่ง
2020-10-07,20:25:18,20:26:28,20:38:04,20:40:27,21:24:15,21:24:49,13.8234717,100.547306,13.8399229,100.5475665,13.738852,100.564152,Beer Hima,Thai,อาหารทะเล
2020-10-11,10:30:17,10:31:39,10:48:02,11:02:26,11:38:09,11:38:16,13.8196298,100.553768,13.8272046,100.536048,13.884881,100.599732,ไก่ย่างห้าดาว กรุงเทพ-นนท์44,Thai,Fast Food
2020-10-09,16:38:47,16:40:32,16:47:15,16:55:12,17:35:17,17:35:43,13.8265211,100.549559,13.8421854,100.5415688,13.74799626,100.5457873,Je Khai Seafood,Thai,อาหารทะเล
2020-10-11,08:21:42,08:22:23,08:28:10,08:35:46,09:04:57,09:06:17,13.822207,100.56924,13.8276518,100.5678331,13.786703,100.572415,ข้าวผัดปู เมืองทอง 1 • เมเจอร์รัชโยธิน,Thai,อาหารตามสั่ง
2020-10-12,17:12:20,17:13:33,17:29:34,17:42:08,18:14:06,18:15:18,13.8213091,100.566572,13.8341271,100.5487891,13.8741784,100.5163486,PaN Bake & Bistro,International,ของหวาน
2020-10-03,14:32:04,14:32:46,14:48:58,14:59:12,15:14:27,15:15:34,13.8200561,100.551307,13.8243993,100.5729662,13.806445,100.580493,อาหารตามสั่ง by พี่ลูกกอล์ฟ,Thai,อาหารตามสั่ง
2020-10-01,20:43:09,20:43:29,20:50:11,20:50:58,21:20:34,21:20:41,13.827365,100.564055,13.8270341,100.5645341,13.7955167,100.6084573,ร้านใบเตย,Thai,อาหารตามสั่ง
2020-10-01,10:37:12,10:38:54,10:47:42,10:51:33,11:11:49,11:12:29,13.8241807,100.566458,13.8208421,100.5558652,13.794282,100.549671,ครัวบ้านบ้าน,Thai,อาหารตามสั่ง
2020-10-14,09:42:03,09:43:22,09:59:38,10:10:34,10:49:06,10:50:18,13.8217875,100.557593,13.8218898,100.5804156,13.8845016,100.5122696,หม่อง,Thai,อาหารตามสั่ง
2020-10-13,20:45:45,20:46:46,21:00:28,21:13:12,21:54:00,21:55:27,13.819377,100.552759,13.8205288,100.5623643,13.899316,100.544932,ร้านอาหาร,Thai,อาหารตามสั่ง
2020-10-05,12:04:54,12:05:08,12:09:07,12:21:04,12:48:24,12:49:25,13.8291623,100.561455,13.8239427,100.566485,13.7779337,100.5802975,ลาบเป็ดอุดร พหลโยธิน24,Thai,อาหารอีสาน
2020-10-01,20:43:44,20:43:50,20:48:43,21:02:10,21:34:12,21:35:24,13.8292089,100.556612,13.8313101,100.559465,13.894173,100.56335,ร้าน ๑ เดี่ยวส้มตำ @รัชดา48,Thai,อาหารอีสาน
2020-10-12,12:47:05,12:47:12,12:55:24,13:05:12,13:30:31,13:31:16,13.8263376,100.564417,13.8209576,100.5498324,13.781422,100.544496,ร้านถุงเงินถุงทองโภชนา (วา),Thai,อาหารตามสั่ง
2020-10-10,12:25:55,12:27:29,12:30:35,12:42:13,13:01:28,13:02:41,13.8261968,100.565462,13.8276518,100.5678331,13.798638,100.595882,ข้าวผัดปู เมืองทอง 1 • เมเจอร์รัชโยธิน,Thai,อาหารตามสั่ง
2020-10-02,14:55:24,14:56:48,15:02:04,15:14:05,15:41:04,15:41:48,13.8267922,100.569328,13.8246205,100.5633957,13.8568587,100.5077059,ร้านราดหน้า ข้าวผัดโบราณ Box Space,Thai,ร้านก๋วยเตี๋ยว
2020-10-14,18:08:38,18:09:52,18:19:09,18:25:29,19:02:06,19:02:41,13.826314,100.558963,13.8391213,100.5504775,13.7736979,100.5706993,Pass the Pasta Bangkok (Bon Marche Market),International,สปาเก็ตตี้
2020-10-07,20:17:05,20:18:54,20:28:38,20:38:51,21:21:05,21:21:18,13.8216399,100.562168,13.8246205,100.5633957,13.740171,100.564189,ร้านราดหน้า ข้าวผัดโบราณ Box Space,Thai,ร้านก๋วยเตี๋ยว
2020-10-06,11:10:02,11:11:32,11:21:13,11:30:30,12:18:05,12:18:35,13.8228239,100.550232,13.8246205,100.5633957,13.744812,100.558531,ร้านขายผัดไทย,Thai,ร้านก๋วยเตี๋ยว
2020-10-02,11:17:14,11:18:50,11:36:53,11:48:14,12:02:00,12:03:29,13.8199185,100.552677,13.8421854,100.5415688,13.8232668,100.5626689,Je Khai Seafood,Thai,อาหารทะเล
2020-10-13,13:23:57,13:25:54,13:32:08,13:40:20,13:58:23,13:59:05,13.8216392,100.551444,13.8270341,100.5645341,13.8305943,100.6179857,ร้านโตโต้ ตำแหลก,Thai,อาหารอีสาน
2020-10-07,19:05:23,19:06:53,19:12:59,19:23:45,19:38:09,19:39:10,13.8251068,100.56201,13.8270341,100.5645341,13.816442,100.534659,ร้านเกี๋ยวเตี๋ยวแม่แหวน,Thai,ร้านก๋วยเตี๋ยว
2020-10-03,09:45:13,09:45:30,09:51:33,10:01:53,10:25:13,10:25:49,13.8214397,100.55356,13.8246205,100.5633957,13.812272,100.520709,ร้านLoveshopping byคุณปูทะเล,Thai,อาหารทะเล
2020-10-03,08:30:20,08:30:34,08:43:38,08:48:04,09:39:29,09:39:46,13.8236106,100.555266,13.8270341,100.5645341,13.746778,100.544107,ร้านพี้โย,Thai,อาหารตามสั่ง
2020-10-09,08:30:55,08:32:03,08:43:33,08:54:24,09:32:32,09:33:38,13.8237578,100.547483,13.8295898,100.5621261,13.891509,100.583994,Hangout by aruno,Thai,อาหารตามสั่ง
2020-10-01,11:45:27,11:46:14,12:04:32,12:10:05,12:49:41,12:50:40,13.8199957,100.547301,13.8270089,100.5650812,13.746228,100.558883,เสน่ห์สุรินทร์ หอมกลิ่นสุราษฎร์,Thai,อาหารตามสั่ง
2020-10-03,20:33:48,20:35:42,20:43:32,20:52:30,21:28:58,21:29:09,13.8277959,100.554459,13.8246205,100.5633957,13.764608,100.560427,ร้านหมูปิ้งลุงเม,Thai,อาหารจานด่วน
2020-10-08,13:17:54,13:19:28,13:23:37,13:37:33,14:02:26,14:02:51,13.8197218,100.561632,13.8270341,100.5645341,13.832597,100.620898,ร้านในฝัน,Thai,อาหารตามสั่ง
2020-10-08,18:05:46,18:07:36,18:13:15,18:26:29,19:16:44,19:17:11,13.8276607,100.555327,13.8270341,100.5645341,13.740312,100.560728,เหมยอาหารตามสั่ง,Thai,อาหารตามสั่ง
2020-10-11,20:41:43,20:42:54,20:51:30,20:56:14,21:28:07,21:28:42,13.8273658,100.560802,13.8398417,100.5539785,13.780318,100.574016,Jitprapassorn Restaurant,Thai,อาหารตามสั่ง
2020-10-03,08:40:42,08:41:09,08:49:21,08:51:41,09:31:45,09:32:07,13.8259661,100.564572,13.8270341,100.5645341,13.76284,100.564818,หอม,Thai,อาหารตามสั่ง
2020-10-09,09:09:13,09:10:12,09:16:48,09:25:29,09:56:08,09:56:39,13.8229311,100.563239,13.8270341,100.5645341,13.790344,100.537029,วันดี,Thai,อาหารตามสั่ง
2020-10-13,18:03:45,18:05:01,18:26:07,18:40:31,19:24:44,19:25:58,13.8249187,100.56539,13.8435708,100.5448913,13.780319,100.574014,Smith & Rabbit Cuisine,International,อาหารตามสั่ง
2020-10-09,16:58:57,17:00:44,17:14:22,17:15:09,17:43:50,17:44:38,13.8194278,100.551304,13.838594,100.538436,13.865174,100.617118,T-taste,Thai,อาหารตามสั่ง
2020-10-10,19:41:48,19:43:11,19:53:10,19:53:46,20:14:56,20:15:41,13.8242793,100.560373,13.8270341,100.5645341,13.788855,100.5480246,ร้านในฝัน,Thai,อาหารตามสั่ง
2020-10-12,19:47:25,19:48:53,19:56:33,20:04:25,20:44:33,20:45:13,13.8232062,100.547044,13.8246205,100.5633957,13.760938,100.5556042,วอพเฟอร์เบลเยี่ยม กทม ร้านขายวอพเฟอร์,Thai,ของหวาน
2020-10-08,12:58:28,12:58:54,13:08:18,13:23:01,13:58:59,13:59:19,13.8221367,100.55481,13.8208651,100.5558353,13.75240555,100.5348807,อาหารตามสั่ง ซอยวิภาวดีรังสิต 11,Thai,อาหารตามสั่ง
2020-10-04,17:05:08,17:05:30,17:13:05,17:15:56,17:46:41,17:47:23,13.8292838,100.554737,13.8203651,100.5630145,13.741577,100.563676,ร้านใบตอง,Thai,อาหารตามสั่ง
2020-10-11,21:22:02,21:22:18,21:40:57,21:50:06,22:13:33,22:14:24,13.8206362,100.551733,13.8276216,100.5729052,13.797125,100.57005,ร้านกะเพราพริกแห้ง by moojune,Thai,อาหารตามสั่ง
2020-10-02,20:19:15,20:19:59,20:26:24,20:28:22,21:23:53,21:24:16,13.8278799,100.563004,13.8398417,100.5539785,13.738822,100.572724,Jitprapassorn Restaurant,Thai,อาหารตามสั่ง
2020-10-10,17:53:31,17:55:23,17:58:28,18:02:28,18:26:23,18:27:15,13.8249316,100.561437,13.8268653,100.5652273,13.775211,100.574474,SCB Mae Manee Food Center,Thai,อาหารตามสั่ง
2020-10-11,13:33:10,13:33:26,13:45:44,13:46:27,14:15:07,14:15:26,13.8244439,100.553107,13.827487,100.5654859,13.757419,100.561038,ร้านก๋วยเตี๋ยวลูกชิ้นหมูน้ำใสราชาสยาม,Thai,ร้านก๋วยเตี๋ยว
2020-10-10,11:47:46,11:49:10,12:02:37,12:02:53,12:22:59,12:24:27,13.8271316,100.553427,13.8246205,100.5633957,13.806075,100.529714,ร้านหมูปิ้งลุงเม,Thai,อาหารจานด่วน
2020-10-03,11:26:27,11:26:33,11:37:25,11:42:28,11:58:10,11:58:46,13.829204,100.552931,13.8246298,100.5792843,13.786703,100.572415,ร้านวิไลนำโชค,Thai,อาหารตามสั่ง
2020-10-07,10:27:33,10:28:39,10:45:35,10:59:36,11:45:47,11:46:39,13.8290802,100.554854,13.8421854,100.5415688,13.78353251,100.5854419,Je Khai Seafood,Thai,อาหารทะเล
2020-10-05,08:44:44,08:46:35,08:53:21,08:55:12,09:29:17,09:30:15,13.8292632,100.560659,13.8233015,100.559162,13.895821,100.570952,อิราชัยมาเสะ,Japanese,อาหารตามสั่ง
2020-10-14,20:38:59,20:39:53,20:45:07,20:55:26,21:28:33,21:28:43,13.8246395,100.566996,13.8266157,100.5659024,13.77144,100.63697,ร้านข้าวซอย&ขนมจีน,Thai,อาหารเหนือ
2020-10-11,20:06:09,20:07:28,20:13:30,20:16:30,20:24:16,20:25:32,13.8260527,100.566152,13.8270341,100.5645341,13.828907,100.569456,ร้านแควน้อย,Thai,อาหารตามสั่ง
2020-10-12,12:56:36,12:56:46,13:02:07,13:10:34,13:46:28,13:46:45,13.8287921,100.566832,13.8270341,100.5645341,13.742569,100.554853,หอม,Thai,อาหารตามสั่ง
2020-10-01,21:51:24,21:53:01,21:58:58,22:08:12,22:41:00,22:42:21,13.8239672,100.557178,13.8246205,100.5633957,13.8680118,100.4907351,กระเพาะปลาแม่มาลี,Thai,อาหารตามสั่ง
2020-10-07,16:44:59,16:46:21,16:54:19,17:08:39,17:35:16,17:35:54,13.82605,100.546241,13.8255507,100.5595669,13.87142001,100.6026136,ครัววิภาฯ32,Thai,อาหารตามสั่ง
2020-10-12,20:33:56,20:34:42,20:51:04,20:54:40,21:11:43,21:12:46,13.820255,100.550491,13.8370506,100.5404021,13.819058,100.535955,Nai Sai's Khao Moo Daeng,Thai,อาหารตามสั่ง
2020-10-03,21:25:38,21:25:50,21:39:01,21:42:34,22:01:55,22:02:28,13.8239182,100.55127,13.8391213,100.5504775,13.84110237,100.5129627,Pass the Pasta Bangkok (Bon Marche Market),International,สปาเก็ตตี้
2020-10-10,15:21:10,15:22:27,15:45:38,15:52:36,16:11:05,16:11:27,13.8241005,100.569497,13.8369959,100.5404075,13.8393737,100.575472,Hia Lek,Thai,อาหารตามสั่ง
2020-10-02,12:54:52,12:56:52,13:04:58,13:18:42,13:43:02,13:44:01,13.8287553,100.552443,13.8286272,100.5708436,13.813381,100.531577,ร้านอาหารอร่อย@พหล30,Thai,อาหารตามสั่ง
2020-10-13,12:36:52,12:37:01,12:45:18,12:59:48,13:20:29,13:21:55,13.823932,100.564345,13.8231392,100.5601657,13.783163,100.54228,ซินจ่าว ก๋วยจั๊บญวน,Thai,ร้านก๋วยเตี๋ยว
2020-10-04,17:47:46,17:49:19,17:56:35,18:00:26,18:27:11,18:27:58,13.8268638,100.553213,13.8401929,100.5483626,13.87142001,100.6026136,Spagetti House,International,สปาเก็ตตี้
2020-10-13,18:56:53,18:57:40,19:06:35,19:20:16,19:54:14,19:54:25,13.8204451,100.569009,13.8283999,100.5621363,13.740746,100.557483,ร้านป้าอ๋องตามสั่งริมคลอง,Thai,อาหารตามสั่ง
2020-10-05,18:02:01,18:02:17,18:10:29,18:15:18,18:49:40,18:50:56,13.825108,100.548288,13.8246205,100.5633957,13.745633,100.551811,ร้านLoveshopping byคุณปูทะเล,Thai,อาหารทะเล
2020-10-01,12:33:33,12:35:01,12:51:43,12:55:58,13:38:33,13:39:32,13.8271902,100.548429,13.8208574,100.5793538,13.742418,100.540304,ร้านส้มตำเงินล้าน,Thai,อาหารอีสาน
2020-10-11,13:45:42,13:47:06,13:53:58,14:04:32,14:38:30,14:39:11,13.822737,100.563839,13.8270341,100.5645341,13.78644224,100.5432772,โคลเวอร์ เฮ้าส์ พีพี,Thai,อาหารตามสั่ง
2020-10-03,16:54:12,16:55:08,17:00:46,17:09:31,17:57:44,17:57:56,13.8228441,100.563334,13.8270341,100.5645341,13.74840979,100.5627772,ร้านเกี๋ยวเตี๋ยวแม่แหวน,Thai,ร้านก๋วยเตี๋ยว
2020-10-01,17:02:33,17:04:08,17:18:17,17:30:26,18:15:24,18:15:44,13.8278003,100.551024,13.8270341,100.5645341,13.73891359,100.5608998,หม่าล่า,Thai,อาหารจานด่วน
2020-10-04,15:21:27,15:22:13,15:25:27,15:38:57,16:19:52,16:21:18,13.8227517,100.564296,13.8270341,100.5645341,13.839131,100.492603,ร้านยำไม่ได้นอน เว้ย,Thai,อาหารตามสั่ง
2020-10-05,18:34:51,18:35:46,18:40:07,18:45:53,19:25:44,19:26:05,13.8290072,100.553332,13.8284372,100.5592143,13.738515,100.564749,ถ่ายเอกสาร / อาหารตามสั่ง,Thai,อาหารตามสั่ง
2020-10-14,16:12:35,16:13:27,16:21:32,16:24:04,16:57:17,16:57:38,13.8288161,100.561965,13.8270341,100.5645341,13.747887,100.552672,ร้านโย,Thai,อาหารตามสั่ง
2020-10-05,13:12:52,13:14:24,13:32:43,13:39:10,13:53:48,13:53:55,13.8282133,100.56665,13.8400223,100.5456799,13.828595,100.570489,The Pizza Company ประชาชื่น,International,พิซซ่า
2020-10-09,14:32:56,14:34:09,14:41:05,14:41:35,14:56:21,14:56:27,13.8214816,100.562385,13.8295898,100.5621261,13.8179288,100.591363,Hangout by aruno,Thai,อาหารตามสั่ง
2020-10-10,18:00:26,18:00:56,18:07:53,18:10:02,19:06:54,19:07:31,13.8232816,100.547609,13.8398417,100.5539785,13.742808,100.597514,Jitprapassorn Restaurant,Thai,อาหารตามสั่ง
2020-10-01,12:30:32,12:30:56,12:52:10,13:00:24,13:27:09,13:27:40,13.8285946,100.564909,13.8416848,100.5334207,13.806074,100.513152,ราชาเป็ดย่าง คากิ,Thai,อาหารตามสั่ง
2020-10-01,11:28:28,11:29:24,11:43:49,11:56:27,12:21:33,12:21:41,13.8248891,100.565958,13.841296,100.5493439,13.775817,100.575734,ข้าวบ้านฉัน,Thai,อาหารตามสั่ง
2020-10-09,19:07:24,19:07:59,19:17:14,19:30:01,19:56:06,19:57:15,13.8204268,100.568721,13.8275203,100.5654979,13.794282,100.549671,ร้านขาหมูอร่อยนะบายจอย,Thai,อาหารตามสั่ง
2020-10-14,16:50:01,16:50:12,16:53:14,17:07:31,17:42:40,17:43:48,13.8270199,100.556263,13.8270341,100.5645341,13.748273,100.55906,ร้าน อาหารตามสั่งแม็กกี้,Thai,อาหารตามสั่ง
2020-10-05,15:34:16,15:35:37,15:42:45,15:49:20,16:23:24,16:24:38,13.8259662,100.554717,13.8310315,100.5496052,13.7846993,100.6116971,ร้านลมโชย,Thai,อาหารตามสั่ง
2020-10-06,14:23:25,14:23:31,14:37:32,14:47:44,14:57:22,14:57:51,13.8243156,100.54824,13.8246205,100.5633957,13.820059,100.568774,ร้านสาข้าวแกง ประชานิเวศน์,Thai,อาหารตามสั่ง
2020-10-12,21:23:20,21:24:57,21:29:00,21:35:48,22:12:11,22:12:52,13.829288,100.552387,13.8341271,100.5487891,13.745856,100.593154,PaN Bake & Bistro,International,ของหวาน
2020-10-06,17:37:15,17:39:01,17:48:52,17:57:29,18:17:25,18:18:32,13.8243668,100.565393,13.8401929,100.5483626,13.808977,100.570525,Spagetti House,International,สปาเก็ตตี้
2020-10-03,13:52:19,13:52:45,14:02:29,14:15:03,14:59:39,14:59:48,13.823914,100.564976,13.8276427,100.5638852,13.754458,100.56438,ปันกัน by perfetto coffee,Thai,อาหารตามสั่ง
2020-10-12,17:20:15,17:21:24,17:26:56,17:34:29,18:01:05,18:02:12,13.8277227,100.555482,13.8259715,100.55715,13.781298,100.541593,Ploen,Thai,อาหารตามสั่ง
2020-10-13,15:20:27,15:21:36,15:37:24,15:40:41,16:19:35,16:20:09,13.8273763,100.569541,13.8392356,100.5513614,13.789075,100.627796,นัวขนาด,Thai,อาหารอีสาน
2020-10-08,09:27:22,09:28:04,09:44:41,09:45:45,10:10:11,10:10:36,13.825215,100.546316,13.8222855,100.5764408,13.77531798,100.5818137,ร้านอาหารตามสั่งป้าหวี,Thai,อาหารตามสั่ง
2020-10-09,10:09:50,10:11:04,10:17:54,10:30:58,11:01:04,11:01:12,13.8284362,100.550693,13.8401929,100.5483626,13.87142001,100.6026136,Spagetti House,International,สปาเก็ตตี้
2020-10-02,19:43:49,19:45:10,19:54:50,20:05:14,20:34:54,20:35:36,13.8269826,100.566118,13.8270341,100.5645341,13.761584,100.542548,ร้านลูกชิ้นทอด,Thai,อาหารจานด่วน
2020-10-11,15:31:24,15:32:56,15:38:05,15:48:03,16:01:19,16:02:16,13.8249528,100.561807,13.8246205,100.5633957,13.845245,100.565148,ร้านน้ำพริกบ้านย่า,Thai,อาหารตามสั่ง
2020-10-06,10:02:38,10:04:03,10:18:37,10:25:07,10:55:15,10:55:37,13.8229287,100.568299,13.8283918,100.5527541,13.771112,100.576049,ร้านเชิญมาลองอาหารตามสั่ง,Thai,อาหารตามสั่ง
2020-10-03,14:11:46,14:12:49,14:21:44,14:24:17,14:55:07,14:56:14,13.8241637,100.564548,13.8296455,100.5620011,13.74866041,100.5679699,This eat it,Thai,อาหารตามสั่ง
2020-10-04,11:46:45,11:47:43,11:53:24,12:04:55,12:26:58,12:27:18,13.8253946,100.566747,13.8246205,100.5633957,13.845476,100.542486,ร้านเฮียแจ๊คอาหารตามสั่ง หน้าSCB,Thai,อาหารตามสั่ง
2020-10-11,17:47:37,17:48:14,17:53:43,18:02:30,18:30:54,18:31:02,13.8203515,100.55872,13.8246205,100.5633957,13.74474176,100.5627387,ร้านแกงใต้เมืองตรัง,Thai,อาหารใต้
2020-10-04,14:56:33,14:57:34,15:06:13,15:11:14,15:34:11,15:34:25,13.8284795,100.548219,13.8397399,100.5520175,13.786902,100.55309,HARUKI japanese restaurant,Japanese,อาหารตามสั่ง
2020-10-14,12:30:58,12:32:32,12:43:06,12:49:17,13:22:46,13:23:10,13.8273692,100.54643,13.8281057,100.5639419,13.87241,100.60359,Sweet Pea,Thai,อาหารตามสั่ง
2020-10-11,20:01:58,20:02:27,20:10:07,20:21:43,21:03:30,21:04:36,13.8267697,100.548932,13.8306088,100.5435153,13.740619,100.559291,แซบนัว ครัวอิสาน สาขาประชานุกุล,Thai,อาหารอีสาน
2020-10-03,09:35:17,09:35:23,09:44:21,09:55:26,10:28:34,10:28:52,13.8215546,100.559926,13.8270341,100.5645341,13.741577,100.563676,ร้านนางละอองคำ,Thai,อาหารตามสั่ง
2020-10-13,09:05:28,09:06:20,09:16:46,09:26:19,10:04:12,10:05:20,13.8268657,100.553199,13.8391213,100.5504775,13.76117653,100.5365493,Pass the Pasta Bangkok (Bon Marche Market),International,สปาเก็ตตี้
2020-10-01,19:55:21,19:55:36,20:00:38,20:04:01,20:33:49,20:34:11,13.8215567,100.561611,13.8270341,100.5645341,13.788825,100.611941,ร้านโตโต้ ตำแหลก,Thai,อาหารอีสาน
2020-10-11,15:06:29,15:06:55,15:13:31,15:19:13,16:06:27,16:07:57,13.827064,100.560695,13.8246205,100.5633957,13.745769,100.558524,ร้านก๋วยเตี๋ยวไก่มะระ,Thai,ร้านก๋วยเตี๋ยว
2020-10-13,13:53:20,13:54:00,14:10:55,14:19:35,14:54:27,14:55:49,13.8257896,100.567953,13.8439052,100.543106,13.787873,100.552474,ครัวคุณแป้ม ดริฟเข้ามา ซอย8 จอดตรงข้ามบ้านนะ,Thai,อาหารตามสั่ง
2020-10-05,19:12:00,19:12:21,19:28:39,19:38:51,20:35:22,20:36:38,13.8245242,100.564617,13.8272999,100.5283614,13.738952,100.567264,MK Restaurants,Thai,สุกี้ยากี้
2020-10-13,21:04:45,21:06:05,21:14:34,21:25:33,22:04:27,22:04:52,13.8219538,100.565733,13.8222756,100.5573407,13.748502,100.565959,บ้านตา-ยาย ร้านอาหารไทย,Thai,อาหารตามสั่ง
2020-10-04,18:00:52,18:02:06,18:13:12,18:26:01,18:49:14,18:49:34,13.819261,100.567508,13.8281888,100.5774268,13.786902,100.55309,ร้านบ้านเรา,Thai,อาหารตามสั่ง
2020-10-05,13:07:32,13:08:13,13:18:48,13:26:16,13:52:12,13:53:11,13.8265918,100.567442,13.8401929,100.5483621,13.906646,100.524781,โจ๊กลุง​ต๊อก​,Thai,อาหารตามสั่ง
2020-10-07,12:24:29,12:26:02,12:34:26,12:43:57,12:52:06,12:52:16,13.8271567,100.566177,13.8242611,100.5620061,13.81497,100.576593,องค์ชายน้อยหมูนุ่ม หมูกรอบ,Thai,อาหารตามสั่ง
2020-10-14,08:07:26,08:09:04,08:21:19,08:25:35,09:10:46,09:11:53,13.8202035,100.562792,13.8307766,100.5386816,13.743918,100.548309,About Beef,International,สเต๊ก
2020-10-04,16:50:44,16:51:59,16:55:57,17:01:52,17:37:51,17:39:03,13.8204193,100.559875,13.8246205,100.5633957,13.8845016,100.5122696,ร้านหมูปิ้งลุงเม,Thai,อาหารจานด่วน
2020-10-14,13:03:39,13:05:01,13:16:17,13:18:37,14:06:37,14:07:49,13.8271612,100.551625,13.8285458,100.5631067,13.738967,100.580168,ก๋วยเตี๋ยวเรือ นายบุญ,Thai,ร้านก๋วยเตี๋ยว
2020-10-12,15:39:53,15:40:45,15:47:16,15:59:14,16:32:57,16:33:27,13.8241,100.552015,13.8397718,100.5516388,13.7983381,100.5873659,Pomme de Terre,Thai,อาหารตามสั่ง
2020-10-09,16:02:38,16:04:17,16:11:08,16:25:00,17:04:28,17:05:54,13.8252691,100.550802,13.8270341,100.5645341,13.740965,100.562559,ฟิตตรีไก่ทอดหาดใหญ่,Thai,ไก่ทอด
2020-10-04,11:23:25,11:25:07,11:32:56,11:37:55,11:58:41,11:59:31,13.8227794,100.568138,13.8119636,100.5616577,13.797023,100.585189,Hilly's Restaurant,International,อาหารตามสั่ง
2020-10-04,20:11:28,20:11:37,20:16:48,20:21:10,20:36:52,20:37:08,13.8284859,100.566374,13.8231392,100.5601657,13.795944,100.550215,ซินจ่าว ก๋วยจั๊บญวน,Thai,ร้านก๋วยเตี๋ยว
2020-10-05,09:29:40,09:31:15,09:41:05,09:45:43,10:17:31,10:17:52,13.8283612,100.565795,13.8374458,100.5405386,13.787668,100.544489,ส้มตำ ไก่ย่าง ประชาชื่น 34,Thai,อาหารอีสาน
2020-10-04,16:25:41,16:26:11,16:38:10,16:43:48,17:22:11,17:22:44,13.8232633,100.551285,13.8246205,100.5633957,13.740273,100.580105,กระเพาะปลาแม่มาลี,Thai,อาหารตามสั่ง
2020-10-10,09:22:36,09:22:55,09:26:09,09:40:14,09:49:58,09:50:22,13.8253872,100.562131,13.8270341,100.5645341,13.814451,100.570363,ร้านก้อยร้อยลาภ,Thai,อาหารอีสาน
2020-10-13,15:21:36,15:23:28,15:29:06,15:43:50,16:01:39,16:02:55,13.8193776,100.553777,13.8232357,100.560739,13.8574167,100.5357758,ร้านตู้ปลา หลังชินวัตร3,Thai,อาหารตามสั่ง
2020-10-14,16:21:48,16:22:56,16:31:35,16:33:37,16:59:07,17:00:09,13.8290041,100.553015,13.8246205,100.5633957,13.783946,100.576541,ร้านข้าวไข่ข้น&ปลาแซลมอล (หน้าต่าง)ๆ ร้านข้าว,Thai,อาหารตามสั่ง
2020-10-03,17:08:44,17:09:29,17:28:11,17:32:17,18:13:02,18:14:10,13.8195401,100.553293,13.8279031,100.5781832,13.759841,100.5297928,ร้านน้องเพ็ญ,Thai,อาหารตามสั่ง
2020-10-08,18:07:55,18:08:46,18:20:05,18:31:55,18:45:38,18:46:45,13.8225006,100.569326,13.8264171,100.5491713,13.8574167,100.5357758,ครัวแม่ประกาย,Thai,อาหารตามสั่ง
2020-10-14,19:43:15,19:44:14,19:56:33,20:03:49,20:45:14,20:45:31,13.8264776,100.565038,13.8391213,100.5504775,13.740664,100.564838,Pass the Pasta Bangkok (Bon Marche Market),International,สปาเก็ตตี้
2020-10-11,18:04:02,18:04:51,18:10:10,18:14:14,18:30:33,18:32:01,13.819803,100.561166,13.8270341,100.5645341,13.7858126,100.5505456,ร้าน ป.ตรี อาหารและเครื่องดี่ม,Thai,อาหารตามสั่ง
2020-10-09,12:43:03,12:43:52,12:50:20,13:03:27,13:31:43,13:31:58,13.8270291,100.550123,13.8228114,100.5654557,13.896998,100.549055,สมตำคุณชาย,Thai,อาหารอีสาน
2020-10-14,21:05:54,21:07:18,21:18:16,21:24:42,22:01:05,22:02:35,13.8199614,100.548193,13.8270341,100.5645341,13.740106,100.570218,ร้านเจ๊เอ เตี๋ยวน้ำใส,Thai,ร้านก๋วยเตี๋ยว
2020-10-14,10:44:33,10:44:46,10:51:13,11:06:01,11:39:12,11:40:05,13.8283002,100.550666,13.827487,100.5654859,13.744988,100.549422,ร้านก๋วยเตี๋ยวลูกชิ้นหมูน้ำใสราชาสยาม,Thai,ร้านก๋วยเตี๋ยว
2020-10-12,10:02:47,10:03:24,10:10:29,10:23:00,10:40:36,10:41:43,13.8195576,100.55843,13.8270341,100.5645341,13.792219,100.54755,บ้านขนมหวาน จะนะ,Thai,ของหวาน
2020-10-02,13:19:21,13:20:14,13:32:55,13:40:32,13:57:55,13:58:38,13.8250254,100.563522,13.8411814,100.5338511,13.810864,100.565858,Burger King - Rest Area Prachachuen,International,อาหารจานด่วน
2020-10-01,16:04:48,16:05:36,16:12:20,16:20:13,16:57:02,16:58:02,13.8251494,100.547183,13.8270341,100.5645341,13.754339,100.562737,ร้านในฝัน,Thai,อาหารตามสั่ง
2020-10-13,20:56:07,20:56:39,21:02:55,21:09:49,21:28:46,21:28:53,13.8203876,100.568328,13.8276427,100.5638852,13.789657,100.571982,ปันกัน by perfetto coffee,Thai,อาหารตามสั่ง
2020-10-07,18:05:46,18:06:02,18:19:48,18:31:40,19:17:19,19:18:00,13.826495,100.547789,13.8272046,100.536048,13.747592,100.528244,ไก่ย่างห้าดาว กรุงเทพ-นนท์44,Thai,Fast Food
2020-10-05,16:11:43,16:12:10,16:19:38,16:30:58,17:05:58,17:06:46,13.8212045,100.568545,13.8246205,100.5633957,13.745757,100.557177,กระเพาะปลาแม่มาลี,Thai,อาหารตามสั่ง
2020-10-07,18:02:27,18:03:40,18:11:34,18:26:05,19:06:14,19:06:54,13.8278565,100.548044,13.8209576,100.5498324,13.773911,100.640952,ร้านถุงเงินถุงทองโภชนา (วา),Thai,อาหารตามสั่ง
2020-10-12,21:45:48,21:46:55,21:58:02,22:04:12,22:16:12,22:16:20,13.8284805,100.566147,13.8218884,100.5796905,13.814451,100.570363,ตาโย่ง ลุงกัง อาหารตามสั่ง,Thai,อาหารตามสั่ง
2020-10-14,11:09:45,11:11:24,11:24:14,11:39:12,12:27:40,12:28:32,13.8198593,100.557558,13.8270341,100.5645341,13.90711,100.5316,ร้านขนมจีน,Thai,ขนมจีน
2020-10-01,11:19:06,11:19:59,11:32:34,11:33:16,11:52:08,11:53:27,13.8253476,100.563747,13.8421854,100.5415688,13.799872,100.50772,Je Khai Seafood,Thai,อาหารทะเล
2020-10-11,20:08:44,20:10:40,20:16:28,20:23:51,21:03:51,21:04:34,13.8246746,100.566826,13.8256273,100.559812,13.743072,100.555031,ร้านอาหารจานใหญ่ หลังปั้ม ปตท. ซ.วิภาวดี32,Thai,อาหารตามสั่ง
2020-10-01,21:50:41,21:51:17,22:04:57,22:11:33,22:49:50,22:50:35,13.8288295,100.552164,13.8418588,100.542333,13.881049,100.586731,Eres Music & Restaurant,International,อาหารตามสั่ง
2020-10-07,13:09:50,13:10:07,13:23:36,13:28:29,14:06:49,14:07:15,13.8218029,100.556026,13.8280804,100.5640747,13.746369,100.562791,Jim's,Thai,อาหารตามสั่ง
2020-10-10,16:05:23,16:06:15,16:14:05,16:23:51,17:07:40,17:08:32,13.8238591,100.553046,13.8285458,100.5631067,13.746548,100.555257,ก๋วยเตี๋ยวเรือ นายบุญ,Thai,ร้านก๋วยเตี๋ยว
2020-10-08,11:50:30,11:51:04,12:01:37,12:03:16,12:45:17,12:46:04,13.8203924,100.552016,13.8270341,100.5645341,13.761745,100.591428,หอม,Thai,อาหารตามสั่ง
2020-10-06,20:20:50,20:21:55,20:29:17,20:29:22,20:47:31,20:48:24,13.827759,100.550139,13.8334697,100.5452996,13.825354,100.566962,TEVA FOOD,Thai,อาหารตามสั่ง
2020-10-05,11:41:08,11:41:14,11:47:48,11:53:51,12:21:31,12:22:25,13.8208419,100.561146,13.8222855,100.5764408,13.8262295,100.5290682,ร้านอาหารตามสั่งป้าหวี,Thai,อาหารตามสั่ง
2020-10-01,21:08:21,21:08:27,21:19:55,21:27:05,21:47:51,21:48:08,13.8290296,100.562544,13.8212138,100.5802001,13.7890408,100.555649,HungryMan House,International,สปาเก็ตตี้
2020-10-02,11:53:48,11:54:36,12:05:56,12:13:27,12:38:16,12:39:31,13.8273431,100.546873,13.8439052,100.543106,13.807722,100.571186,ครัวคุณแป้ม ดริฟเข้ามา ซอย8 จอดตรงข้ามบ้านนะ,Thai,อาหารตามสั่ง
2020-10-12,19:00:55,19:02:42,19:06:50,19:17:21,19:48:37,19:49:49,13.8268767,100.565614,13.8251831,100.5590026,13.752462,100.610971,ร้านข้าวแกงดนยา,Thai,อาหารตามสั่ง
2020-10-08,18:11:05,18:12:16,18:20:25,18:35:09,19:18:37,19:19:02,13.8193012,100.558422,13.8270341,100.5645341,13.74197442,100.5443234,เต็มอิ่ม,Thai,อาหารตามสั่ง
2020-10-10,13:37:21,13:38:31,13:48:13,13:52:07,14:11:11,14:11:51,13.8290262,100.563192,13.8270341,100.5645341,13.804971,100.570917,ร้านจันทร์คง คลอง 8,Thai,อาหารตามสั่ง
2020-10-12,12:47:40,12:48:58,12:57:16,13:08:30,13:23:19,13:24:20,13.8214549,100.546941,13.821011,100.5555603,13.814694,100.566183,พี่หนูตามใจ,Thai,อาหารตามสั่ง
2020-10-11,20:57:16,20:58:29,21:09:03,21:15:32,21:30:54,21:31:13,13.8204022,100.553598,13.8246205,100.5633957,13.79785,100.587337,ร้านตำระเบิด,Thai,อาหารอีสาน
2020-10-07,17:29:46,17:31:26,17:35:49,17:49:56,18:27:55,18:29:20,13.8197515,100.564199,13.8246205,100.5633957,13.738602,100.572788,ก๋วยเตี๋ยวเรือวิศวะ,Thai,ร้านก๋วยเตี๋ยว
2020-10-01,19:54:55,19:55:16,20:03:05,20:10:26,20:26:39,20:26:54,13.826127,100.548335,13.826941,100.5655884,13.84069444,100.5874184,ร้านข้าวแกง ครัววท.บ. (แม่ละเมียด),Thai,อาหารตามสั่ง
2020-10-12,11:50:30,11:51:54,12:16:00,12:25:38,12:55:38,12:56:49,13.8253672,100.56689,13.8345401,100.5405318,13.7990804,100.5745763,Soontharee Restaurant,Thai,อาหารตามสั่ง
2020-10-11,21:39:36,21:40:52,21:54:17,21:55:45,22:08:04,22:08:23,13.82181,100.54656,13.8281888,100.5774268,13.799664,100.573861,ร้านบ้านเรา,Thai,อาหารตามสั่ง
2020-10-11,17:51:39,17:52:01,17:56:12,18:00:55,18:36:05,18:37:08,13.8257024,100.564852,13.8270341,100.5645341,13.7428505,100.5498939,บ้านขนมหวาน จะนะ,Thai,ของหวาน
2020-10-07,09:36:35,09:38:24,09:47:54,09:52:56,10:07:45,10:09:02,13.8269213,100.555214,13.8263075,100.5738629,13.806883,100.572691,ร้านแซนวิชประตูเขียว,Thai,Quick Meal
2020-10-04,19:12:00,19:12:13,19:21:00,19:21:33,19:34:10,19:34:51,13.8210813,100.564155,13.8270341,100.5645341,13.797393,100.564701,ร้านขนมจีน,Thai,ขนมจีน
2020-10-09,15:57:19,15:59:10,16:06:23,16:10:42,16:22:44,16:24:14,13.8289392,100.560172,13.8246205,100.5633957,13.818726,100.584694,ร้านLoveshopping byคุณปูทะเล,Thai,อาหารทะเล
2020-10-10,08:06:17,08:06:46,08:18:04,08:21:12,09:08:10,09:09:00,13.8221721,100.555104,13.8270341,100.5645341,13.747887,100.552672,ร้านเจ๊เอ เตี๋ยวน้ำใส,Thai,ร้านก๋วยเตี๋ยว
2020-10-14,10:35:28,10:37:24,10:46:26,10:58:38,11:38:14,11:38:22,13.8195247,100.569664,13.8245607,100.5642677,13.7524129,100.5329053,สมาคมส่งเสริมร้านอาหารแฟรนไชส์ไทย-เมียนมาร์,Myanmar,อาหารตามสั่ง
2020-10-07,10:31:00,10:32:36,10:42:35,10:44:49,11:06:19,11:06:58,13.8269708,100.567087,13.8375914,100.5497846,13.806501,100.565842,Prikhorm,Thai,อาหารตามสั่ง
2020-10-14,17:09:53,17:11:38,17:27:10,17:27:39,18:27:41,18:28:51,13.8265236,100.563379,13.841296,100.5493439,13.741577,100.563676,ข้าวบ้านฉัน,Thai,อาหารตามสั่ง
2020-10-01,09:20:44,09:21:32,09:36:02,09:44:28,10:17:38,10:18:16,13.8285729,100.556397,13.8209576,100.5498324,13.885425,100.595046,ร้านถุงเงินถุงทองโภชนา (วา),Thai,อาหารตามสั่ง
2020-10-06,13:08:41,13:09:36,13:17:27,13:24:45,14:09:49,14:10:19,13.8280616,100.564553,13.8257034,100.5593094,13.741623,100.575339,3K SEA ZABB,Thai,อาหารทะเล
2020-10-02,12:56:01,12:57:19,13:14:27,13:19:21,13:49:56,13:50:32,13.8285518,100.552273,13.8411814,100.5338511,13.7739818,100.546488,Burger King - Rest Area Prachachuen,International,อาหารจานด่วน
2020-10-07,09:34:34,09:35:58,09:58:05,10:01:46,10:44:20,10:45:09,13.8206178,100.569032,13.841296,100.5493439,13.887622,100.601879,ข้าวบ้านฉัน,Thai,อาหารตามสั่ง
2020-10-03,17:10:19,17:10:38,17:26:56,17:35:38,18:05:16,18:06:23,13.8253929,100.548901,13.8286272,100.5708436,13.74837291,100.566622,ร้านอาหารอร่อย@พหล30,Thai,อาหารตามสั่ง
2020-10-13,08:31:38,08:32:15,08:40:54,08:50:26,09:40:48,09:42:18,13.8252831,100.550277,13.8254566,100.5590536,13.739323,100.567575,ก๋วยเตี๋ยวเรือวิภาฯ,Thai,ร้านก๋วยเตี๋ยว
2020-10-08,16:31:44,16:32:47,16:51:14,16:59:50,17:37:48,17:38:44,13.8265579,100.568019,13.8435708,100.5448913,13.793494,100.613266,Smith & Rabbit Cuisine,International,อาหารตามสั่ง
2020-10-13,13:42:06,13:42:37,13:53:11,14:03:09,14:24:26,14:24:53,13.8239452,100.546725,13.8243993,100.5729662,13.781352,100.543174,อาหารตามสั่ง by พี่ลูกกอล์ฟ,Thai,อาหารตามสั่ง
2020-10-04,13:45:59,13:47:39,14:06:16,14:10:36,14:52:18,14:53:08,13.8210835,100.553878,13.8232776,100.5744729,13.884315,100.524377,ร้านอาหารตามสั่งน้องโบนัส,Thai,อาหารตามสั่ง
2020-10-02,11:56:33,11:57:06,12:03:31,12:18:27,12:48:18,12:49:38,13.8285519,100.559195,13.8285458,100.5631067,13.84476218,100.5275843,ก๋วยเตี๋ยวเรือ นายบุญ,Thai,ร้านก๋วยเตี๋ยว
2020-10-12,09:30:40,09:31:58,09:39:58,09:51:19,10:04:02,10:04:22,13.8216121,100.558037,13.8270341,100.5645341,13.804526,100.590755,ร้านยำไม่ได้นอน เว้ย,Thai,อาหารตามสั่ง
2020-10-09,18:45:04,18:46:45,19:01:42,19:01:59,19:37:05,19:38:35,13.8291566,100.547438,13.8257034,100.5593094,13.750727,100.529421,3K SEA ZABB,Thai,อาหารทะเล
2020-10-09,10:46:25,10:46:46,10:59:59,11:04:11,11:22:40,11:22:58,13.8227672,100.553484,13.8246205,100.5633957,13.82864185,100.5275404,ร้านLoveshopping byคุณปูทะเล,Thai,อาหารทะเล
2020-10-01,19:07:49,19:08:42,19:18:40,19:33:03,20:20:52,20:21:16,13.8231665,100.568085,13.826941,100.5655884,13.73891359,100.5608998,ร้านข้าวแกง ครัววท.บ. (แม่ละเมียด),Thai,อาหารตามสั่ง
2020-10-07,20:04:51,20:05:15,20:14:43,20:24:30,20:40:34,20:41:07,13.8287999,100.565865,13.8285458,100.5631067,13.80908626,100.5593562,ก๋วยเตี๋ยวเรือ นายบุญ,Thai,ร้านก๋วยเตี๋ยว
2020-10-11,16:39:39,16:40:06,16:47:10,16:53:26,17:27:57,17:29:17,13.8222221,100.559753,13.8208651,100.5558353,13.762357,100.537194,อาหารตามสั่ง ซอยวิภาวดีรังสิต 11,Thai,อาหารตามสั่ง
2020-10-05,08:34:22,08:36:04,08:43:17,08:52:05,08:58:05,08:59:03,13.8203128,100.568641,13.8256273,100.559812,13.8213078,100.5748492,ร้านอาหารจานใหญ่ หลังปั้ม ปตท. ซ.วิภาวดี32,Thai,อาหารตามสั่ง
2020-10-09,12:31:06,12:32:01,12:42:36,12:44:21,13:12:13,13:12:38,13.8277596,100.547149,13.8246205,100.5633957,13.785294,100.583279,MZ Fushion Food อาหารคลีน ญี่ปุ่น เพื่อสุขภาพ,Japanese,ร้านอาหาร
2020-10-12,11:35:57,11:36:10,11:42:25,11:56:35,12:08:36,12:08:45,13.8195802,100.556926,13.8246205,100.5633957,13.806067,100.572731,ร้านข้าวแกงลุงดำ,Thai,อาหารตามสั่ง
2020-10-06,21:46:57,21:48:33,22:07:27,22:22:24,22:56:20,22:57:33,13.8236862,100.550064,13.8212138,100.5802001,13.747911,100.548391,HungryMan House,International,สปาเก็ตตี้
2020-10-09,16:27:42,16:29:14,16:36:57,16:43:36,17:14:46,17:16:15,13.8267142,100.56748,13.8219752,100.575644,13.85802534,100.5269628,ร้านอาหารไก่ย่างเสือใหญ่,Thai,อาหารอีสาน
2020-10-12,09:39:01,09:40:22,09:47:20,09:52:19,10:37:21,10:38:00,13.8238598,100.550165,13.8328053,100.5394589,13.752343,100.579855,ร้านน้องแคนา ข้าวขาหมู,Thai,อาหารตามสั่ง
2020-10-13,12:10:39,12:11:46,12:20:50,12:30:24,13:00:10,13:01:34,13.8271632,100.55284,13.8375914,100.5497846,13.854761,100.516177,Prikhorm,Thai,อาหารตามสั่ง
2020-10-07,16:48:43,16:50:22,16:55:07,17:04:26,17:57:54,17:58:39,13.8192847,100.566951,13.8270341,100.5645341,13.906646,100.524781,ร้านเลี่ยงเมืองปลาเผา,Thai,อาหารอีสาน
2020-10-04,10:42:32,10:42:42,10:46:12,10:46:30,11:17:14,11:18:27,13.8284474,100.563518,13.8270341,100.5645341,13.776394,100.617136,ร้านโย,Thai,อาหารตามสั่ง
2020-10-08,09:03:53,09:04:41,09:18:25,09:27:42,10:04:30,10:05:01,13.8292612,100.548991,13.8270089,100.5650812,13.747923,100.528281,เสน่ห์สุรินทร์ หอมกลิ่นสุราษฎร์,Thai,อาหารตามสั่ง
2020-10-12,08:29:11,08:29:50,08:49:43,08:59:10,09:19:21,09:20:14,13.8265688,100.558655,13.8218884,100.5796905,13.829169,100.527111,ตาโย่ง ลุงกัง อาหารตามสั่ง,Thai,อาหารตามสั่ง
2020-10-10,17:19:49,17:20:29,17:24:22,17:36:04,18:11:43,18:12:00,13.8201611,100.558869,13.823734,100.553947,13.860527,100.508473,ร้านปาร์ซีฟู้ดแซ่บBy.dara,Thai,อาหารทะเล
2020-10-09,09:43:21,09:44:22,09:48:17,09:59:47,10:27:33,10:28:20,13.8271271,100.567923,13.826941,100.5655884,13.775902,100.541684,ร้านข้าวแกง ครัววท.บ. (แม่ละเมียด),Thai,อาหารตามสั่ง
2020-10-02,14:23:34,14:25:33,14:35:38,14:37:32,15:27:12,15:28:40,13.82434,100.550638,13.8270341,100.5645341,13.750827,100.598138,ร้านครัวคุณย่า,Thai,อาหารตามสั่ง
2020-10-11,15:41:54,15:42:54,15:54:10,15:56:01,16:39:02,16:40:00,13.8278921,100.554964,13.8418588,100.542333,13.746977,100.556049,Eres Music & Restaurant,International,อาหารตามสั่ง
2020-10-12,15:23:02,15:24:27,15:38:25,15:42:57,16:23:17,16:24:00,13.8192582,100.546195,13.8328053,100.5394589,13.76085,100.536286,ร้านน้องแคนา ข้าวขาหมู,Thai,อาหารตามสั่ง
2020-10-01,17:57:50,17:58:24,18:05:04,18:10:54,18:43:15,18:43:26,13.8236684,100.557351,13.8270341,100.5645341,13.779602,100.565528,ร้านโย,Thai,อาหารตามสั่ง
2020-10-03,15:19:26,15:20:37,15:28:45,15:32:13,16:06:49,16:07:48,13.8189912,100.560941,13.8245607,100.5642677,13.854563,100.519862,สมาคมส่งเสริมร้านอาหารแฟรนไชส์ไทย-เมียนมาร์,Myanmar,อาหารตามสั่ง
2020-10-06,12:57:45,12:58:59,13:06:15,13:06:31,13:55:05,13:55:32,13.8264595,100.556464,13.8341271,100.5487891,13.7428505,100.5498939,PaN Bake & Bistro,International,ของหวาน
2020-10-05,12:30:14,12:32:07,12:43:11,12:57:32,13:35:13,13:36:15,13.8222851,100.560429,13.8401929,100.5483626,13.784527,100.582918,Spagetti House,International,สปาเก็ตตี้
2020-10-10,21:54:26,21:56:17,21:59:51,22:00:06,22:39:16,22:40:10,13.8284855,100.558834,13.8276518,100.5678331,13.742263,100.573247,ข้าวผัดปู เมืองทอง 1 • เมเจอร์รัชโยธิน,Thai,อาหารตามสั่ง
2020-10-06,13:09:59,13:10:47,13:17:50,13:23:36,13:51:52,13:53:04,13.8260155,100.568664,13.8254703,100.5592021,13.7878,100.626688,เตี๋ยวร้านต็อบ,Thai,ร้านก๋วยเตี๋ยว
2020-10-10,13:08:33,13:09:20,13:18:52,13:27:24,13:55:07,13:56:37,13.8266518,100.563089,13.8270341,100.5645341,13.851365,100.516293,ร้านนางละอองคำ,Thai,อาหารตามสั่ง
2020-10-01,21:08:38,21:09:59,21:19:49,21:26:16,22:19:45,22:20:19,13.8285289,100.556201,13.8270341,100.5645341,13.906666,100.529415,โซลคุง,International,อาหารตามสั่ง
2020-10-14,08:58:16,08:59:41,09:10:41,09:15:38,09:44:14,09:45:35,13.8233818,100.559808,13.8222855,100.5764408,13.815795,100.646337,ร้านอาหารตามสั่งป้าหวี,Thai,อาหารตามสั่ง
2020-10-14,18:48:49,18:49:17,18:55:36,19:06:27,19:26:49,19:27:39,13.822672,100.551383,13.8270341,100.5645341,13.84476218,100.5275843,ร้านจันทร์คง คลอง 8,Thai,อาหารตามสั่ง
2020-10-01,09:51:16,09:52:59,09:57:49,10:03:15,10:40:52,10:42:09,13.828701,100.564844,13.8270341,100.5645341,13.74197442,100.5443234,อาหารตามสั้ง,Thai,อาหารตามสั่ง
2020-10-08,20:06:35,20:08:34,20:13:39,20:26:23,20:51:52,20:52:47,13.8196266,100.564012,13.8212803,100.5693427,13.790049,100.547449,ร้านป้าชู อาหารตามสั่ง ผัดไท หอยทอด,Thai,ร้านก๋วยเตี๋ยว
2020-10-09,20:12:12,20:12:47,20:16:23,20:21:02,21:05:52,21:06:53,13.8291066,100.567233,13.8232357,100.560739,13.89418,100.564145,ร้านตู้ปลา หลังชินวัตร3,Thai,อาหารตามสั่ง
2020-10-01,14:13:55,14:14:53,14:34:13,14:41:12,15:18:27,15:19:51,13.8211481,100.558122,13.8420914,100.5426436,13.8680118,100.4907351,Little Rabbit Lounge and Restaurant,Thai,อาหารตามสั่ง
2020-10-01,14:09:36,14:10:21,14:19:33,14:25:33,15:12:47,15:14:11,13.8251019,100.551463,13.8246205,100.5633957,13.739633,100.568389,ก๋วยเตี๋ยวเรือวิศวะ,Thai,ร้านก๋วยเตี๋ยว
2020-10-05,11:38:50,11:39:07,11:45:38,11:52:38,12:22:50,12:23:04,13.8278425,100.55982,13.8270341,100.5645341,13.749787,100.562047,ร้านอาหารฟู้ดแพนดี้,Thai,อาหารตามสั่ง
2020-10-12,14:02:50,14:03:49,14:11:22,14:22:31,14:47:44,14:47:58,13.8245409,100.561354,13.8270341,100.5645341,13.7779337,100.5802975,ร้านยำไม่ได้นอน เว้ย,Thai,อาหารตามสั่ง
2020-10-11,17:36:32,17:37:08,17:44:36,17:56:28,18:19:01,18:19:54,13.8259114,100.551534,13.8251831,100.5590026,13.8008253,100.5749887,ร้านข้าวแกงดนยา,Thai,อาหารตามสั่ง
2020-10-07,10:00:12,10:01:44,10:04:50,10:17:41,10:57:05,10:57:35,13.8264301,100.56971,13.8246205,100.5633957,13.87142001,100.6026136,ร้านก๋วยเตี๋ยวไก่ต้มยำแม่เล็ก,Thai,ร้านก๋วยเตี๋ยว
2020-10-07,16:39:30,16:41:14,16:54:42,16:59:19,17:23:33,17:24:42,13.826217,100.554161,13.8299181,100.5339571,13.86947028,100.4896351,ถนัดกินกลางซอย,Thai,อาหารตามสั่ง
2020-10-04,15:54:17,15:55:06,16:02:49,16:04:19,16:56:11,16:56:45,13.8275166,100.548931,13.8270341,100.5645341,13.77163832,100.6304565,บังหมาน,Thai,อาหารทะเล
2020-10-02,21:04:45,21:06:25,21:10:26,21:12:33,21:47:56,21:48:40,13.8284649,100.564916,13.8286272,100.5708436,13.743918,100.548309,ร้านอาหารอร่อย@พหล30,Thai,อาหารตามสั่ง
2020-10-07,13:10:42,13:11:22,13:26:46,13:33:53,14:03:35,14:04:42,13.8252657,100.562907,13.8328053,100.5394589,13.75214216,100.5341398,ร้านน้องแคนา ข้าวขาหมู,Thai,อาหารตามสั่ง
2020-10-07,18:33:33,18:34:56,18:43:53,18:45:27,18:56:32,18:57:31,13.8257447,100.550223,13.8270341,100.5645341,13.833239,100.57881,ร้านอาหาร วินเทส,Thai,อาหารตามสั่ง
2020-10-03,20:40:34,20:42:02,20:49:09,20:56:24,21:17:56,21:18:32,13.8245925,100.551965,13.8270341,100.5645341,13.798726,100.620441,ป้าหมึกอาหารตามสั่ง,Thai,อาหารตามสั่ง
2020-10-11,17:13:03,17:14:12,17:28:40,17:31:52,18:14:28,18:15:39,13.8197735,100.565084,13.8232776,100.5744729,13.743904,100.561793,ร้านอาหารตามสั่งน้องโบนัส,Thai,อาหารตามสั่ง
2020-10-05,11:20:07,11:20:44,11:24:11,11:32:03,11:58:27,11:58:46,13.8274923,100.566457,13.8270341,100.5645341,13.784998,100.569631,ร้านอาหารฟู้ดแพนดี้,Thai,อาหารตามสั่ง
2020-10-04,11:19:41,11:20:49,11:35:25,11:43:22,12:02:59,12:03:15,13.8228104,100.563722,13.841296,100.5493439,13.803211,100.569659,ข้าวบ้านฉัน,Thai,อาหารตามสั่ง
2020-10-05,17:18:23,17:19:10,17:25:12,17:26:25,18:21:14,18:22:43,13.8250422,100.552757,13.8270341,100.5645341,13.745572,100.551314,ร้านคุณยายทอง,Thai,อาหารตามสั่ง
2020-10-07,09:53:17,09:54:31,09:58:48,10:01:09,10:10:10,10:10:48,13.8277433,100.558108,13.8246205,100.5633957,13.8232668,100.5626689,ร้านก๋วยเตี๋ยวไก่มะระ,Thai,ร้านก๋วยเตี๋ยว
2020-10-14,13:57:04,13:58:33,14:05:28,14:08:58,14:35:22,14:35:32,13.8200893,100.565874,13.8303265,100.5625,13.789487,100.58892,ครัวอิ่มอร่อย,Thai,อาหารตามสั่ง
2020-10-04,08:17:40,08:19:13,08:28:56,08:35:54,08:58:04,08:59:34,13.826819,100.55468,13.8273022,100.5358786,13.787668,100.544489,ร้านลูกชิ้นทอด,Thai,อาหารจานด่วน
2020-10-01,08:18:23,08:18:47,08:26:37,08:33:12,08:45:26,08:45:48,13.8222661,100.552455,13.8307766,100.5386816,13.80620216,100.5562047,About Beef,International,สเต๊ก
2020-10-08,19:15:27,19:16:27,19:23:20,19:32:29,19:36:12,19:37:12,13.8256881,100.554057,13.8245607,100.5642677,13.821288,100.571434,สมาคมส่งเสริมร้านอาหารแฟรนไชส์ไทย-เมียนมาร์,Myanmar,อาหารตามสั่ง
2020-10-14,18:14:15,18:15:39,18:32:39,18:36:43,19:19:29,19:19:50,13.8263797,100.564634,13.8400223,100.5456799,13.745223,100.557084,The Pizza Company ประชาชื่น,International,พิซซ่า
2020-10-06,17:06:00,17:07:16,17:14:12,17:19:23,17:36:28,17:36:46,13.824146,100.558432,13.8270341,100.5645341,13.79094,100.574658,ร้านอาหารตามสั่ง ตามใจปาก,Thai,อาหารตามสั่ง
2020-10-10,09:40:19,09:40:47,09:51:03,09:52:17,10:27:07,10:27:33,13.828556,100.552031,13.8310562,100.5707308,13.891509,100.583994,ร้านอาหารอีสานแม่อลิส,Thai,อาหารอีสาน
2020-10-14,18:37:18,18:38:30,18:54:40,19:05:20,19:47:05,19:47:34,13.8215202,100.552044,13.8299181,100.5339571,13.74795,100.527393,ถนัดกินกลางซอย,Thai,อาหารตามสั่ง
2020-10-11,11:43:26,11:43:53,11:51:53,11:54:04,12:09:33,12:10:58,13.8211514,100.566091,13.8283999,100.5621363,13.7858126,100.5505456,ร้านป้าอ๋องตามสั่งริมคลอง,Thai,อาหารตามสั่ง
2020-10-07,14:49:29,14:49:50,15:06:41,15:18:14,15:36:45,15:37:23,13.8262638,100.552926,13.8243993,100.5729662,13.791506,100.548445,อาหารตามสั่ง by พี่ลูกกอล์ฟ,Thai,อาหารตามสั่ง
2020-10-11,19:11:08,19:12:25,19:19:01,19:28:11,19:58:52,19:59:27,13.8247174,100.563433,13.8264171,100.5491713,13.771014,100.573858,ครัวแม่ประกาย,Thai,อาหารตามสั่ง
2020-10-07,16:00:37,16:01:08,16:07:17,16:18:21,16:33:59,16:34:31,13.8272151,100.547667,13.8283918,100.5527541,13.854251,100.522053,ร้านเชิญมาลองอาหารตามสั่ง,Thai,อาหารตามสั่ง
2020-10-03,21:36:43,21:38:33,21:53:19,21:59:46,22:37:00,22:37:30,13.8260247,100.556498,13.8317013,100.5690392,13.73980077,100.5517605,ร้านป้าป้อม อาหารตามสั่ง,Thai,อาหารตามสั่ง
2020-10-04,21:39:01,21:39:57,21:49:52,21:55:50,22:07:36,22:08:47,13.8266157,100.566452,13.8239427,100.566485,13.808934,100.566021,ลาบเป็ดอุดร พหลโยธิน24,Thai,อาหารอีสาน
2020-10-10,17:04:08,17:05:49,17:20:35,17:33:21,18:15:50,18:16:03,13.8235785,100.549256,13.8246205,100.5633957,13.78388006,100.4939085,หมึกย่างแม่ไก่ ร้านขายปลาหมึก กทม,Thai,อาหารทะเล
2020-10-01,19:34:28,19:35:09,19:39:50,19:47:25,20:17:19,20:17:58,13.8194411,100.562104,13.8254703,100.5592021,13.787746,100.547059,เตี๋ยวร้านต็อบ,Thai,ร้านก๋วยเตี๋ยว
2020-10-01,11:03:16,11:03:23,11:16:14,11:24:03,11:46:07,11:47:11,13.8222111,100.563854,13.8212138,100.5802001,13.819058,100.535955,HungryMan House,International,สปาเก็ตตี้
2020-10-14,20:30:46,20:31:57,20:35:22,20:39:44,21:02:05,21:03:02,13.8255977,100.560933,13.8255867,100.5595272,13.797125,100.57005,ร้านข้าวราดแกงวิภา 32,Thai,อาหารตามสั่ง
2020-10-08,15:26:38,15:27:11,15:36:20,15:44:45,16:27:14,16:28:31,13.8241747,100.550441,13.8208651,100.5558353,13.741381,100.562927,อาหารตามสั่ง ซอยวิภาวดีรังสิต 11,Thai,อาหารตามสั่ง
2020-10-08,10:09:50,10:10:42,10:15:11,10:20:36,11:12:48,11:13:39,13.825136,100.566169,13.828517,100.560169,13.74207,100.571709,ร้านพี่หญิงอาหารตามสั่ง ข้าวแกง ก๋วยเตี๋ยว,Thai,อาหารตามสั่ง
2020-10-03,15:09:04,15:10:45,15:19:44,15:24:52,16:06:17,16:07:00,13.8212197,100.551968,13.8270341,100.5645341,13.755776,100.564519,โคลเวอร์ เฮ้าส์ พีพี,Thai,อาหารตามสั่ง
2020-10-01,19:42:23,19:43:02,19:56:19,20:05:32,20:40:06,20:40:28,13.8292045,100.563837,13.8391213,100.5504775,13.787359,100.546026,Pass the Pasta Bangkok (Bon Marche Market),International,สปาเก็ตตี้
2020-10-12,17:57:24,17:57:58,18:01:41,18:13:27,18:55:11,18:56:16,13.819951,100.555319,13.8222756,100.5573407,13.744576,100.573321,บ้านตา-ยาย ร้านอาหารไทย,Thai,อาหารตามสั่ง
2020-10-13,21:13:58,21:15:53,21:20:55,21:21:46,21:44:39,21:45:47,13.8280987,100.561279,13.8246205,100.5633957,13.792219,100.54755,กระเพาะปลาแม่มาลี,Thai,อาหารตามสั่ง
2020-10-12,11:05:51,11:07:46,11:22:41,11:24:12,11:33:28,11:34:24,13.8265596,100.548482,13.8270341,100.5645341,13.807806,100.569706,ร้านลูกชิ้นทอด,Thai,อาหารจานด่วน
2020-10-02,09:43:21,09:45:03,09:54:50,10:09:31,10:27:08,10:28:07,13.829233,100.559212,13.8246205,100.5633957,13.799262,100.5517964,ร้านก๋วยเตี๋ยวเรือนายโด,Thai,ร้านก๋วยเตี๋ยว
2020-10-06,12:03:19,12:04:17,12:19:57,12:25:28,12:50:18,12:50:46,13.8221578,100.553986,13.8273022,100.5358786,13.779401,100.575942,ร้านลูกชิ้นทอด,Thai,อาหารจานด่วน
2020-10-09,15:36:17,15:37:02,15:50:04,16:03:18,17:02:04,17:02:15,13.8222443,100.551918,13.8334697,100.5452996,13.815795,100.646337,TEVA FOOD,Thai,อาหารตามสั่ง
2020-10-11,15:18:26,15:19:44,15:28:48,15:34:14,15:58:35,15:59:44,13.8248931,100.555912,13.8307766,100.5386816,13.80443235,100.5761889,About Beef,International,สเต๊ก
2020-10-01,13:09:33,13:10:50,13:21:23,13:36:20,14:10:41,14:11:49,13.8261024,100.548109,13.8270341,100.5645341,13.78877,100.614712,โคลเวอร์ เฮ้าส์ พีพี,Thai,อาหารตามสั่ง
2020-10-14,17:59:00,18:00:46,18:04:38,18:07:43,18:34:44,18:34:50,13.8281163,100.564633,13.8242611,100.5620061,13.858477,100.54512,องค์ชายน้อยหมูนุ่ม หมูกรอบ,Thai,อาหารตามสั่ง
2020-10-04,21:04:11,21:05:32,21:15:27,21:20:05,21:58:54,22:00:16,13.8247831,100.558188,13.8212803,100.5693427,13.749031,100.529285,ร้านป้าชู อาหารตามสั่ง ผัดไท หอยทอด,Thai,ร้านก๋วยเตี๋ยว
2020-10-04,11:38:59,11:40:13,11:50:59,12:01:46,12:20:48,12:21:57,13.8207912,100.55097,13.8308222,100.5433884,13.7858126,100.5505456,Burger King - Caltex Gas Station Prachanukul,International,อาหารจานด่วน
2020-10-04,14:42:26,14:44:02,14:50:15,15:02:04,15:13:40,15:14:59,13.8194202,100.565956,13.8284372,100.5592143,13.83212516,100.5754366,ถ่ายเอกสาร / อาหารตามสั่ง,Thai,อาหารตามสั่ง
2020-10-14,21:54:43,21:55:13,21:58:27,22:09:58,22:26:20,22:26:43,13.8223057,100.563255,13.8254703,100.5592021,13.82260605,100.577622,เตี๋ยวร้านต็อบ,Thai,ร้านก๋วยเตี๋ยว
2020-10-05,09:56:53,09:57:53,10:14:34,10:21:36,10:54:40,10:55:21,13.8249892,100.547523,13.828221,100.566472,13.87142001,100.6026136,McDonald's,International,อาหารจานด่วน
2020-10-03,11:43:26,11:44:59,11:59:30,12:06:49,12:22:23,12:22:45,13.8214192,100.556188,13.8347148,100.5408037,13.806926,100.558748,The Foodie by Kannicha kitchen,Thai,อาหารตามสั่ง
2020-10-02,14:53:57,14:54:42,14:59:13,15:04:18,15:29:50,15:30:49,13.8272466,100.564741,13.826328,100.5650184,13.782331,100.542431,เจ็กหมีราดหน้า,Thai,ร้านก๋วยเตี๋ยว
2020-10-10,21:20:44,21:22:14,21:32:07,21:41:55,22:06:15,22:06:46,13.8270682,100.55759,13.8270341,100.5645341,13.806075,100.529714,ร้านครัวคุณย่า,Thai,อาหารตามสั่ง
2020-10-03,09:05:37,09:06:50,09:20:51,09:35:16,10:13:28,10:13:56,13.8193089,100.557524,13.8249084,100.5692609,13.738381,100.566995,ร้านอาหารพริ้มสบาย prim sabai,Thai,อาหารตามสั่ง
2020-10-12,20:43:44,20:44:14,20:51:21,20:52:23,21:02:58,21:04:23,13.8205444,100.56763,13.8246205,100.5633957,13.807722,100.571186,ร้านอาหารอมร,Thai,อาหารตามสั่ง
2020-10-13,15:35:43,15:37:30,15:51:21,16:05:45,16:41:52,16:43:07,13.8210741,100.548499,13.8232776,100.5744729,13.764295,100.615457,ร้านอาหารตามสั่งน้องโบนัส,Thai,อาหารตามสั่ง
2020-10-04,19:14:36,19:14:59,19:34:36,19:44:19,20:02:59,20:03:21,13.8213671,100.547267,13.826792,100.5661004,13.857393,100.609957,S&P at SCB Park Plaza East,International,เครื่องดื่ม
2020-10-07,11:17:23,11:18:39,11:25:13,11:29:41,12:05:24,12:06:36,13.8206944,100.554213,13.8270341,100.5645341,13.770106,100.569822,ร้านก้อยร้อยลาภ,Thai,อาหารอีสาน
2020-10-07,21:06:55,21:08:36,21:22:15,21:25:53,21:47:07,21:47:15,13.8273032,100.554231,13.8270341,100.5645341,13.789899,100.573568,ป้าหมึกอาหารตามสั่ง,Thai,อาหารตามสั่ง
2020-10-14,21:13:32,21:14:45,21:23:26,21:35:38,22:00:08,22:00:26,13.8218274,100.563155,13.8246205,100.5633957,13.78701572,100.5478899,ร้านข้าวแกงลุงดำ,Thai,อาหารตามสั่ง
2020-10-04,21:21:19,21:22:31,21:34:30,21:46:39,22:30:21,22:31:42,13.8278894,100.55572,13.8281888,100.5774268,13.747121,100.55884,ร้านบ้านเรา,Thai,อาหารตามสั่ง
2020-10-03,12:53:00,12:53:47,12:59:24,13:06:22,13:50:40,13:51:15,13.8226795,100.55064,13.8233794,100.5506289,13.86893231,100.4890773,ร้านครัวตามใจสั่ง,Thai,อาหารตามสั่ง
2020-10-03,17:00:40,17:01:34,17:11:13,17:20:37,18:05:22,18:05:40,13.8199314,100.566674,13.8203651,100.5630145,13.742273,100.568395,ร้านใบตอง,Thai,อาหารตามสั่ง
2020-10-04,21:41:46,21:42:22,21:55:45,21:59:29,22:22:26,22:23:42,13.8225498,100.555572,13.8303265,100.5625,13.8320335,100.6132005,ครัวอิ่มอร่อย,Thai,อาหารตามสั่ง
2020-10-14,21:30:49,21:31:02,21:44:07,21:51:47,22:15:17,22:16:11,13.8291019,100.547679,13.8276427,100.5638852,13.765223,100.567891,ปันกัน by perfetto coffee,Thai,อาหารตามสั่ง
2020-10-01,17:34:22,17:34:49,17:40:05,17:51:55,18:29:11,18:29:24,13.8249646,100.556522,13.8266438,100.5642468,13.748273,100.55906,ร้านเจ้สวย,Thai,อาหารตามสั่ง
2020-10-05,16:57:13,16:57:59,17:09:17,17:22:09,17:31:09,17:32:13,13.8277715,100.551675,13.8270341,100.5645341,13.84141,100.572172,ร้านในฝัน,Thai,อาหารตามสั่ง
2020-10-10,15:23:02,15:24:21,15:38:41,15:46:22,16:12:44,16:12:53,13.8234836,100.565009,13.8421854,100.5415688,13.800425,100.582646,Je Khai Seafood,Thai,อาหารทะเล
2020-10-02,15:17:51,15:19:27,15:28:34,15:29:38,15:52:38,15:53:10,13.819918,100.564469,13.8119636,100.5616577,13.790007,100.583207,Hilly's Restaurant,International,อาหารตามสั่ง
2020-10-09,14:03:07,14:03:37,14:12:44,14:18:04,14:43:01,14:43:19,13.8252195,100.565322,13.8255867,100.5595272,13.763192,100.568494,ร้านข้าวราดแกงวิภา 32,Thai,อาหารตามสั่ง
2020-10-09,12:09:39,12:09:50,12:18:35,12:21:56,12:40:48,12:41:18,13.8270232,100.564648,13.8270341,100.5645341,13.781361,100.543422,ร้าน อาหารตามสั่งแม็กกี้,Thai,อาหารตามสั่ง
2020-10-13,08:02:33,08:03:01,08:11:20,08:24:50,09:08:12,09:08:22,13.8230425,100.558313,13.8270341,100.5645341,13.761745,100.591428,ร้านแควน้อย,Thai,อาหารตามสั่ง
2020-10-06,09:40:36,09:42:28,09:47:17,09:56:54,10:39:06,10:39:52,13.8283092,100.561943,13.8270341,100.5645341,13.7400777,100.5599239,ร้านจันทร์คง คลอง 8,Thai,อาหารตามสั่ง
2020-10-01,11:27:53,11:29:39,11:38:47,11:48:10,12:07:37,12:08:20,13.8200761,100.555028,13.8270341,100.5645341,13.78411892,100.5713731,โคลเวอร์ เฮ้าส์ พีพี,Thai,อาหารตามสั่ง
2020-10-10,14:47:46,14:47:53,14:58:14,15:00:28,15:40:20,15:41:08,13.8272243,100.553112,13.8270341,100.5645341,13.780696,100.622319,อาหารตามสั่งอิสานอินดี้,Thai,อาหารอีสาน
2020-10-11,16:30:26,16:31:38,16:37:33,16:38:43,16:56:15,16:57:38,13.8233087,100.558183,13.8257034,100.5593094,13.7990804,100.5745763,3K SEA ZABB,Thai,อาหารทะเล
2020-10-02,20:05:00,20:06:26,20:25:37,20:39:29,21:03:19,21:04:43,13.827967,100.565556,13.8334697,100.5452996,13.789903,100.570189,TEVA FOOD,Thai,อาหารตามสั่ง
2020-10-12,17:06:00,17:06:59,17:13:36,17:28:28,18:08:37,18:08:43,13.8290117,100.555404,13.8270341,100.5645341,13.739633,100.568389,อาหารตามสั้ง,Thai,อาหารตามสั่ง
2020-10-01,18:51:16,18:51:57,19:01:17,19:07:17,19:49:27,19:50:15,13.8223252,100.56277,13.8232357,100.560739,13.882476,100.600495,ร้านตู้ปลา หลังชินวัตร3,Thai,อาหารตามสั่ง
2020-10-14,15:47:40,15:47:49,15:57:46,15:58:12,16:12:31,16:13:59,13.8220887,100.556454,13.8307766,100.5386816,13.846159,100.563591,About Beef,International,สเต๊ก
2020-10-09,15:19:09,15:20:07,15:27:00,15:30:28,15:58:18,15:58:57,13.8228379,100.554736,13.8307766,100.5386816,13.786902,100.55309,About Beef,International,สเต๊ก
2020-10-02,09:06:20,09:07:10,09:13:39,09:14:11,09:49:41,09:50:07,13.8228887,100.547686,13.8369959,100.5404075,13.890645,100.580635,Hia Lek,Thai,อาหารตามสั่ง
2020-10-10,12:28:05,12:28:58,12:36:47,12:41:02,13:02:17,13:02:53,13.8212551,100.563872,13.8270341,100.5645341,13.794186,100.588656,ร้านใบเตย,Thai,อาหารตามสั่ง
2020-10-14,16:09:07,16:10:58,16:17:41,16:25:30,16:37:46,16:38:20,13.8191002,100.562431,13.8119636,100.5616577,13.8274425,100.5684165,Hilly's Restaurant,International,อาหารตามสั่ง
2020-10-05,15:52:08,15:52:16,16:00:52,16:02:49,16:11:01,16:12:11,13.8279066,100.563186,13.8313101,100.559465,13.814225,100.565511,ร้าน ๑ เดี่ยวส้มตำ @รัชดา48,Thai,อาหารอีสาน
2020-10-09,21:31:49,21:32:10,21:39:49,21:51:16,22:32:49,22:32:57,13.8211094,100.550836,13.8229129,100.5648775,13.8899987,100.6062047,ร้านบ้านเชียงแสน,Thai,อาหารตามสั่ง
2020-10-13,15:39:45,15:41:31,15:58:25,16:01:43,16:18:54,16:20:02,13.8287702,100.560264,13.8401798,100.5423255,13.805833,100.521339,กิวกิวเต้ ประชาชื่น,Japanese,ปิ้งย่าง
2020-10-01,08:03:59,08:05:32,08:10:17,08:14:03,08:58:11,08:59:31,13.8212317,100.557887,13.8246205,100.5633957,13.76671738,100.5982147,ร้านข้าวไข่ข้น&ปลาแซลมอล (หน้าต่าง)ๆ ร้านข้าว,Thai,อาหารตามสั่ง
2020-10-08,19:32:10,19:33:19,19:41:02,19:45:46,20:14:50,20:15:29,13.8243527,100.558756,13.8397718,100.5516388,13.894173,100.56335,Pomme de Terre,Thai,อาหารตามสั่ง
2020-10-08,20:05:43,20:06:28,20:21:51,20:25:21,20:52:50,20:53:57,13.8217582,100.566858,13.8401929,100.5483621,13.8008253,100.5749887,โจ๊กลุง​ต๊อก​,Thai,อาหารตามสั่ง
2020-10-04,18:32:07,18:33:12,18:43:10,18:49:21,19:35:37,19:36:04,13.8252636,100.555453,13.8270341,100.5645341,13.74837291,100.566622,ร้านพี้โย,Thai,อาหารตามสั่ง
2020-10-07,10:01:55,10:02:31,10:12:23,10:24:53,10:49:42,10:50:48,13.8203677,100.554383,13.828517,100.560169,13.87241,100.60359,ร้านพี่หญิงอาหารตามสั่ง ข้าวแกง ก๋วยเตี๋ยว,Thai,อาหารตามสั่ง
2020-10-04,20:54:06,20:54:40,21:03:42,21:08:24,21:43:56,21:44:41,13.8235159,100.548895,13.8283918,100.5527541,13.745633,100.551811,ร้านเชิญมาลองอาหารตามสั่ง,Thai,อาหารตามสั่ง
2020-10-03,11:31:21,11:33:04,11:38:14,11:39:03,12:10:16,12:11:40,13.8243014,100.562135,13.82572,100.5553484,13.743904,100.561793,แกงไท วิภาวดี17,Thai,อาหารตามสั่ง
2020-10-10,08:47:11,08:47:52,08:57:20,09:00:13,09:42:41,09:43:22,13.8234098,100.569007,13.826328,100.5650184,13.74013564,100.5851629,เจ็กหมีราดหน้า,Thai,ร้านก๋วยเตี๋ยว
2020-10-11,17:47:54,17:49:11,17:53:29,17:57:03,18:31:40,18:32:13,13.8255965,100.563325,13.8246205,100.5633957,13.743898,100.571659,วอพเฟอร์เบลเยี่ยม กทม ร้านขายวอพเฟอร์,Thai,ของหวาน
2020-10-02,15:41:37,15:42:05,15:49:48,15:53:49,16:40:00,16:40:24,13.8289326,100.546138,13.8370506,100.5404021,13.834977,100.660693,Nai Sai's Khao Moo Daeng,Thai,อาหารตามสั่ง
2020-10-13,21:39:45,21:40:37,21:50:50,21:54:43,22:19:22,22:20:01,13.8287153,100.55294,13.8270341,100.5645341,13.769798,100.539493,ร้านอาหารสำรับกับข้าว,Thai,อาหารตามสั่ง
2020-10-04,10:44:24,10:44:54,10:56:59,11:11:10,12:02:14,12:02:23,13.8258192,100.550603,13.8276518,100.5678331,13.743709,100.581012,ข้าวผัดปู เมืองทอง 1 • เมเจอร์รัชโยธิน,Thai,อาหารตามสั่ง
2020-10-14,08:07:18,08:08:18,08:27:10,08:38:36,09:41:05,09:41:48,13.8246474,100.555717,13.8294607,100.5349546,13.830209,100.63787,Queen Steak House,International,สเต๊ก
2020-10-09,10:41:05,10:41:39,10:50:46,11:03:49,11:52:04,11:52:11,13.8281772,100.554797,13.8270341,100.5645341,13.744426,100.549606,อาหารตามสั้ง,Thai,อาหารตามสั่ง
2020-10-02,18:22:28,18:24:22,18:36:22,18:44:50,19:20:34,19:21:39,13.8228605,100.550706,13.8369959,100.5404075,13.8672703,100.5917266,Hia Lek,Thai,อาหารตามสั่ง
2020-10-12,14:09:19,14:09:32,14:22:38,14:28:15,15:22:06,15:22:50,13.8228035,100.565312,13.8272046,100.536048,13.74474176,100.5627387,ไก่ย่างห้าดาว กรุงเทพ-นนท์44,Thai,Fast Food
2020-10-14,14:43:35,14:45:29,14:52:07,15:02:03,15:31:54,15:32:42,13.8261696,100.564161,13.8270089,100.5650808,13.779467,100.541266,SCB East Food Court,Thai,อาหารตามสั่ง
2020-10-01,20:39:42,20:39:50,20:45:52,20:57:39,21:48:10,21:49:02,13.8273519,100.550079,13.8310315,100.5496052,13.7695788,100.6387682,ร้านลมโชย,Thai,อาหารตามสั่ง
2020-10-08,11:23:08,11:24:29,11:30:58,11:41:48,12:32:47,12:33:04,13.8288166,100.568398,13.8270341,100.5645341,13.743154,100.573438,อาหารอิสลามฮัยดัร,Isram,อาหารฮาลาล
2020-10-06,10:15:19,10:16:02,10:25:13,10:31:18,10:54:50,10:55:50,13.821493,100.546257,13.8303265,100.5625,13.797787,100.571465,ครัวอิ่มอร่อย,Thai,อาหารตามสั่ง
2020-10-07,17:16:13,17:17:58,17:24:32,17:32:02,17:39:47,17:40:41,13.820199,100.550115,13.8246205,100.5633957,13.816047,100.572202,สหชัยบะหมี่เกี๊ยวปูหมูแดง ร้านก๊วยเตี๊ยว,Thai,ร้านก๋วยเตี๋ยว
2020-10-13,10:17:28,10:18:48,10:25:15,10:35:45,11:05:51,11:06:02,13.821548,100.551357,13.8270341,100.5645341,13.743763,100.556643,เต็มอิ่ม,Thai,อาหารตามสั่ง
2020-10-01,20:30:29,20:31:49,20:55:42,20:56:14,21:22:05,21:22:45,13.8259761,100.557517,13.8272999,100.5283614,13.820348,100.570654,MK Restaurants,Thai,สุกี้ยากี้
2020-10-01,13:30:17,13:31:43,13:43:20,13:53:22,14:44:04,14:44:35,13.8191194,100.551139,13.8284372,100.5592143,13.746005,100.545457,ถ่ายเอกสาร / อาหารตามสั่ง,Thai,อาหารตามสั่ง
2020-10-08,19:49:35,19:51:03,20:03:59,20:13:48,21:07:50,21:08:03,13.8200577,100.556218,13.8270341,100.5645341,13.743709,100.581012,ร้านเลี่ยงเมืองปลาเผา,Thai,อาหารอีสาน
2020-10-09,08:22:42,08:23:28,08:35:11,08:35:36,09:29:42,09:30:54,13.8246518,100.553508,13.8270341,100.5645341,13.770979,100.63033,ร้านวันซุปแซ่บ บีเอสพี,Thai,อาหารตามสั่ง
2020-10-04,12:43:29,12:45:29,12:52:33,12:56:05,13:15:23,13:16:47,13.8280071,100.54741,13.8295721,100.5621929,13.778395,100.574172,ร้านอาหาร The White House@รัชโยธิน,Thai,อาหารตามสั่ง
2020-10-10,16:01:12,16:01:25,16:16:13,16:29:35,16:53:25,16:53:53,13.8218478,100.547206,13.8363066,100.5505987,13.7907692,100.5508569,ห้างหุ้นส่วนจำกัด ปัญญาซีฟู๊ด,Thai,อาหารทะเล
2020-10-13,15:46:57,15:48:41,15:57:02,15:59:08,16:34:26,16:35:34,13.8280531,100.554507,13.8401798,100.5423255,13.77211,100.61588,กิวกิวเต้ ประชาชื่น,Japanese,ปิ้งย่าง
2020-10-06,21:03:27,21:05:18,21:10:48,21:12:46,21:43:20,21:43:55,13.8283808,100.564154,13.8270138,100.5654315,13.85915073,100.5070809,HANYANG Korean Restaurant,Korean,อาหารตามสั่ง
2020-10-01,10:07:24,10:09:15,10:19:16,10:30:41,10:52:44,10:53:52,13.8201058,100.552717,13.8270341,100.5645341,13.800425,100.582646,ร้านส้มตำ,Thai,อาหารอีสาน
2020-10-13,08:10:19,08:10:42,08:22:15,08:32:51,08:43:43,08:44:22,13.8249537,100.552503,13.8270341,100.5645341,13.805223,100.574215,ร้านส้มตำ,Thai,อาหารอีสาน
2020-10-01,17:15:04,17:15:21,17:23:19,17:28:06,18:21:40,18:22:37,13.8194774,100.562961,13.8246205,100.5633957,13.742808,100.597514,ร้านใบตองก๋วยเตี๋ยวหมูน้ำตก,Thai,ร้านก๋วยเตี๋ยว
2020-10-10,20:08:27,20:09:21,20:26:49,20:36:02,21:09:03,21:10:29,13.828926,100.564297,13.8260587,100.5266371,13.7786081,100.5766103,Viet Cuisine Garden and Cafe Wongsawang,Vietnam,อาหารตามสั่ง
2020-10-13,13:25:41,13:26:11,13:35:08,13:38:12,14:00:07,14:00:55,13.822215,100.546114,13.838594,100.538436,13.8845016,100.5122696,T-taste,Thai,อาหารตามสั่ง
2020-10-05,18:51:24,18:52:25,19:08:34,19:15:41,19:57:37,19:58:01,13.8277375,100.569373,13.8303373,100.5471685,13.8789459,100.5909666,ร้านโกดัง2020,Thai,อาหารตามสั่ง
2020-10-08,09:25:12,09:26:00,09:40:36,09:53:56,10:06:48,10:08:15,13.8201945,100.568296,13.8313101,100.559465,13.830935,100.53866,ร้าน ๑ เดี่ยวส้มตำ @รัชดา48,Thai,อาหารอีสาน
2020-10-07,18:01:44,18:02:54,18:15:19,18:16:27,18:28:05,18:28:45,13.8268368,100.558671,13.8281888,100.5774268,13.8232668,100.5626689,ร้านบ้านเรา,Thai,อาหารตามสั่ง
2020-10-14,20:10:02,20:10:32,20:22:22,20:33:58,21:08:59,21:10:08,13.8265026,100.551184,13.8270341,100.5645341,13.738166,100.568286,อาหารตามสั่งอิสานอินดี้,Thai,อาหารอีสาน
2020-10-07,16:39:39,16:40:07,16:55:06,16:59:00,17:47:50,17:48:52,13.8210737,100.547359,13.8229129,100.5648775,13.74197442,100.5443234,ร้านบ้านเชียงแสน,Thai,อาหารตามสั่ง
2020-10-02,21:33:33,21:33:56,21:42:19,21:48:46,22:03:23,22:03:34,13.8268816,100.559955,13.8295721,100.5621929,13.821607,100.577232,ร้านอาหาร The White House@รัชโยธิน,Thai,อาหารตามสั่ง
2020-10-07,20:18:49,20:20:30,20:33:47,20:39:25,21:04:10,21:04:59,13.8248632,100.553221,13.8394082,100.5508608,13.877244,100.594439,Michelle Gourmet,International,อาหารตามสั่ง
2020-10-02,17:50:04,17:51:34,18:00:59,18:01:23,18:08:01,18:09:12,13.8231403,100.554698,13.8246205,100.5633957,13.820348,100.570654,ร้านก๋วยเตี๋ยวไก่ต้มยำแม่เล็ก,Thai,ร้านก๋วยเตี๋ยว
2020-10-03,08:33:22,08:34:01,08:41:11,08:43:00,09:28:51,09:30:19,13.8273003,100.546128,13.8270341,100.5645341,13.741241,100.549322,ร้านพี่น้อง,Thai,อาหารตามสั่ง
2020-10-04,21:57:27,21:58:02,22:16:45,22:22:41,22:41:06,22:42:16,13.8263834,100.567835,13.8209576,100.5498324,13.854563,100.519862,ร้านถุงเงินถุงทองโภชนา (วา),Thai,อาหารตามสั่ง
2020-10-07,15:40:02,15:41:22,15:49:31,16:01:34,16:13:44,16:15:06,13.8196636,100.565022,13.8246205,100.5633957,13.818894,100.580862,ร้านข้าวแกงลุงดำ,Thai,อาหารตามสั่ง
2020-10-13,19:24:06,19:25:43,19:30:49,19:31:57,20:12:20,20:13:14,13.8283129,100.557763,13.8255867,100.5595272,13.906646,100.524781,ร้านข้าวราดแกงวิภา 32,Thai,อาหารตามสั่ง
2020-10-13,16:08:07,16:08:49,16:21:21,16:27:40,17:05:40,17:07:00,13.8226121,100.54943,13.8435708,100.5448913,13.749752,100.556044,Smith & Rabbit Cuisine,International,อาหารตามสั่ง
2020-10-12,12:58:45,12:59:00,13:07:06,13:13:01,13:31:42,13:32:29,13.8284514,100.557216,13.8270341,100.5645341,13.79724,100.551771,ร้านยำไม่ได้นอน เว้ย,Thai,อาหารตามสั่ง
2020-10-03,12:57:19,12:57:44,13:07:38,13:11:56,13:41:08,13:41:22,13.8270626,100.565956,13.8249084,100.5692609,13.74626044,100.587289,ร้านอาหารพริ้มสบาย prim sabai,Thai,อาหารตามสั่ง
2020-10-09,21:38:27,21:39:10,21:51:13,22:01:34,22:37:05,22:37:51,13.8206583,100.556705,13.8270341,100.5645341,13.766661,100.562724,ร้านก้อยร้อยลาภ,Thai,อาหารอีสาน
2020-10-01,08:46:19,08:46:26,08:49:27,09:01:45,09:31:48,09:33:13,13.8288834,100.564357,13.826941,100.5655884,13.765223,100.567891,ร้านข้าวแกง ครัววท.บ. (แม่ละเมียด),Thai,อาหารตามสั่ง
2020-10-03,21:33:42,21:34:54,21:41:14,21:45:12,22:11:33,22:12:39,13.8194328,100.566383,13.8246205,100.5633957,13.790007,100.583207,ร้านข้าวแกงลุงดำ,Thai,อาหารตามสั่ง
2020-10-03,16:47:51,16:48:19,16:52:31,17:01:44,17:15:17,17:15:31,13.8198346,100.562392,13.8246205,100.5633957,13.7968315,100.5612277,ร้านใบตองก๋วยเตี๋ยวหมูน้ำตก,Thai,ร้านก๋วยเตี๋ยว
2020-10-07,18:21:01,18:22:54,18:36:02,18:48:12,19:29:58,19:30:11,13.8206548,100.554804,13.8275203,100.5654979,13.7518932,100.5312449,ร้านขาหมูอร่อยนะบายจอย,Thai,อาหารตามสั่ง
2020-10-06,16:12:26,16:14:00,16:23:50,16:25:43,17:04:02,17:04:30,13.8260029,100.560198,13.8222855,100.5764408,13.7518932,100.5312449,ร้านอาหารตามสั่งป้าหวี,Thai,อาหารตามสั่ง
2020-10-13,17:57:50,17:59:21,18:08:23,18:15:14,18:33:55,18:34:18,13.8264063,100.555687,13.8209576,100.5498324,13.8277728,100.5685145,ร้านถุงเงินถุงทองโภชนา (วา),Thai,อาหารตามสั่ง
2020-10-06,16:01:21,16:02:15,16:05:17,16:16:20,16:53:10,16:53:53,13.8272662,100.56398,13.8270341,100.5645341,13.886641,100.603073,อาหารอิสลามฮัยดัร,Isram,อาหารฮาลาล
2020-10-09,14:20:33,14:21:04,14:28:41,14:41:15,15:01:04,15:01:45,13.8265895,100.557765,13.8246205,100.5633957,13.780214,100.542119,ร้านเฮียแจ๊คอาหารตามสั่ง หน้าSCB,Thai,อาหารตามสั่ง
2020-10-11,08:37:58,08:38:14,08:52:35,09:06:27,09:23:33,09:25:02,13.8197029,100.547249,13.828221,100.566472,13.8181734,100.586886,McDonald's,International,อาหารจานด่วน
2020-10-03,20:03:07,20:04:37,20:10:17,20:15:26,20:45:05,20:46:20,13.8229949,100.5546,13.8246205,100.5633957,13.752343,100.579855,ร้านน้ำพริกบ้านย่า,Thai,อาหารตามสั่ง
